iata,icao,name,city,state,country,latitude,longitude,elevation_ft,timezone
AAA,NTGA,Anaa Airport,,Iles-Tuamotu-Gambier,PF,-17.352600,-145.509995,10,Pacific/Tahiti
AAE,DABB,Annaba Airport,Annabah,Annaba,DZ,36.822201,7.809170,16,Africa/Algiers
AAL,EKYT,Aalborg Airport,Aalborg,North-Denmark,DK,57.092759,9.849243,10,Europe/Copenhagen
AAN,OMAL,Al Ain International Airport,Al Ain,Abu-Dhabi,AE,24.261700,55.609200,869,Asia/Dubai
AAP,WALS,Aji Pangeran Tumenggung Pranoto International Airport,Samarinda,East-Kalimantan,ID,-0.373611,117.255556,82,Asia/Makassar
AAR,EKAH,Aarhus Airport,Aarhus,Central-Jutland,DK,56.299999,10.619000,82,Europe/Copenhagen
AAT,ZWAT,Altay Air Base,Altay,Xinjiang,CN,47.749886,88.085808,2460,Asia/Shanghai
AAX,SBAX,Araxa Airport,Araxa,Minas-Gerais,BR,-19.563200,-46.960400,3276,America/Sao_Paulo
AAZ,MGQZ,Quezaltenango Airport,Quezaltenango,Quetzaltenango,GT,14.865600,-91.501999,7779,America/Guatemala
ABA,UNAA,Abakan Airport,Abakan,Khakasiya,RU,53.740002,91.385002,831,Asia/Krasnoyarsk
ABB,DNAS,Asaba International Airport,Asaba,Delta,NG,6.203333,6.658889,305,Africa/Lagos
ABD,OIAA,Abadan Airport,Abadan,Khuzestan,IR,30.371099,48.228298,10,Asia/Tehran
ABE,KABE,Lehigh Valley International Airport,Allentown,Pennsylvania,US,40.652100,-75.440804,393,America/New_York
ABI,KABI,Abilene Regional Airport,Abilene,Texas,US,32.411301,-99.681900,1791,America/Chicago
ABJ,DIAP,Port Bouet Airport,Abidjan,Lagunes,CI,5.261390,-3.926290,21,Africa/Abidjan
ABL,PAFM,Ambler Airport,Ambler,Alaska,US,67.106300,-157.856995,334,America/Anchorage
ABM,YBAM,Bamaga Injinoo Airport,,Queensland,AU,-10.950800,142.459000,34,Australia/Brisbane
ABQ,KABQ,Albuquerque International Sunport Airport,Albuquerque,New-Mexico,US,35.040199,-106.609001,5355,America/Denver
ABR,KABR,Aberdeen Regional Airport,Aberdeen,South-Dakota,US,45.449100,-98.421799,1302,America/Chicago
ABS,HEBL,Abu Simbel Airport,Abu Simbel,Aswan,EG,22.375999,31.611700,616,Africa/Cairo
ABT,OEBA,Al Baha Airport,,,SA,20.296101,41.634300,5486,Asia/Riyadh
ABU,WRKA,Haliwen Airport,Atambua-Timor Island,East-Nusa-Tenggara,ID,-9.073050,124.904999,1027,Asia/Makassar
ABV,DNAA,Nnamdi Azikiwe International Airport,Abuja,FCT,NG,9.006790,7.263170,1123,Africa/Lagos
ABX,YMAY,Albury Airport,Albury,New-South-Wales,AU,-36.067799,146.957993,539,Australia/Melbourne
ABY,KABY,Southwest Georgia Regional Airport,Albany,Georgia,US,31.535500,-84.194504,197,America/New_York
ABZ,EGPD,Aberdeen Dyce Airport,Aberdeen,Scotland,GB,57.201900,-2.197780,215,Europe/London
ACA,MMAA,General Juan N Alvarez International Airport,Acapulco,Guerrero,MX,16.757099,-99.753998,16,America/Mexico_City
ACC,DGAA,Kotoka International Airport,Accra,,GH,5.605190,-0.166786,205,Africa/Accra
ACE,GCRR,Lanzarote Airport,Lanzarote Island,Canary-Islands,ES,28.945499,-13.605200,46,Atlantic/Canary
ACF,YBAF,Brisbane Archerfield Airport,Brisbane,Queensland,AU,-27.570299,153.007996,63,Australia/Brisbane
ACH,LSZR,St Gallen Altenrhein Airport,Altenrhein,Saint-Gallen,CH,47.485001,9.560770,1306,Europe/Vienna
ACI,EGJA,Alderney Airport,Saint Anne,Alderney,GG,49.706100,-2.214720,290,Europe/Guernsey
ACK,KACK,Nantucket Memorial Airport,Nantucket,Massachusetts,US,41.253101,-70.060204,47,America/New_York
ACT,KACT,Waco Regional Airport,Waco,Texas,US,31.611300,-97.230499,516,America/Chicago
ACV,KACV,Arcata Airport,Arcata/Eureka,California,US,40.978100,-124.109001,221,America/Los_Angeles
ACX,ZUYI,Xingyi Airport,Xingyi,Guizhou,CN,25.086389,104.959444,4150,Asia/Shanghai
ACY,KACY,Atlantic City International Airport,Atlantic City,New-Jersey,US,39.457600,-74.577202,75,America/New_York
ACZ,OIZB,Zabol Airport,,Sistan-and-Baluchestan,IR,31.098301,61.543900,1628,Asia/Tehran
ADA,LTAF,Adana Airport,Adana,Adana,TR,36.982201,35.280399,65,Europe/Istanbul
ADB,LTBJ,Adnan Menderes International Airport,Izmir,Izmir,TR,38.292400,27.157000,412,Europe/Istanbul
ADD,HAAB,Bole International Airport,Addis Ababa,Addis-Ababa,ET,8.977890,38.799301,7630,Africa/Addis_Ababa
ADE,OYAA,Aden International Airport,Aden,Aden,YE,12.829500,45.028801,7,Asia/Aden
ADF,LTCP,Adiyaman Airport,Adiyaman,Adiyaman,TR,37.731400,38.468899,2216,Europe/Istanbul
ADK,PADK,Adak Airport,Adak Island,Alaska,US,51.877998,-176.645996,18,America/Adak
ADL,YPAD,Adelaide International Airport,Adelaide,South-Australia,AU,-34.945000,138.531006,20,Australia/Adelaide
ADQ,PADQ,Kodiak Airport,Kodiak,Alaska,US,57.750000,-152.494003,78,America/Anchorage
ADU,OITL,Ardabil Airport,Ardabil,Ardabil,IR,38.325699,48.424400,4315,Asia/Tehran
ADZ,SKSP,Gustavo Rojas Pinilla International Airport,San Andres,San-Andres-y-Providencia,CO,12.583600,-81.711200,19,America/Bogota
AEB,ZBGS,Tian Yang Air Base,Baise,Guangxi,CN,23.720600,106.959999,0,Asia/Shanghai
AEP,SABE,Jorge Newbery Airpark,Buenos Aires,Buenos-Aires-F-D-,AR,-34.559200,-58.415600,18,America/Argentina/Buenos_Aires
AER,URSS,Sochi International Airport,Sochi,Krasnodarskiy,RU,43.449902,39.956600,89,Europe/Moscow
AES,ENAL,Alesund Airport,Alesund,More-og-Romsdal,NO,62.562500,6.119700,69,Europe/Oslo
AET,PFAL,Allakaket Airport,Allakaket,Alaska,US,66.551804,-152.621994,441,America/Anchorage
AEX,KAEX,Alexandria International Airport,Alexandria,Louisiana,US,31.327400,-92.549797,89,America/Chicago
AEY,BIAR,Akureyri Airport,Akureyri,Northeast,IS,65.660004,-18.072701,6,Atlantic/Reykjavik
AFA,SAMR,Suboficial Ay Santiago Germano Airport,San Rafael,Mendoza,AR,-34.588299,-68.403900,2470,America/Argentina/Mendoza
AFL,SBAT,Alta Floresta Airport,Alta Floresta,Mato-Grosso,BR,-9.866389,-56.105000,948,America/Cuiaba
AGA,GMAD,Al Massira Airport,Agadir,Souss-Massa,MA,30.325001,-9.413070,250,Africa/Casablanca
AGH,ESTA,Angelholm-Helsingborg Airport,Angelholm,Skane,SE,56.296101,12.847100,68,Europe/Stockholm
AGP,LEMG,Malaga Airport,Malaga,Andalusia,ES,36.674900,-4.499110,53,Europe/Madrid
AGR,VIAG,Agra Airport,,Uttar-Pradesh,IN,27.155800,77.960899,551,Asia/Kolkata
AGS,KAGS,Augusta Regional At Bush Field,Augusta,Georgia,US,33.369900,-81.964500,144,America/New_York
AGT,SGES,Guarani International Airport,Ciudad del Este,Alto-Parana,PY,-25.459999,-54.840000,846,America/Asuncion
AGU,MMAS,Jesus Teran International Airport,Aguascalientes,Aguascalientes,MX,21.705601,-102.318001,6112,America/Mexico_City
AGV,SVAC,Oswaldo Guevara Mujica Airport,Acarigua,Portuguesa,VE,9.553375,-69.237869,640,America/Caracas
AGX,VOAT,Agatti Airport,,Laccadives,IN,10.823700,72.176003,14,Asia/Kolkata
AHB,OEAB,Abha Regional Airport,Abha,,SA,18.240400,42.656601,6858,Asia/Riyadh
AHE,NTHE,Ahe Airport,Ahe Atoll,Iles-Tuamotu-Gambier,PF,-14.428100,-146.257004,11,Pacific/Tahiti
AHO,LIEA,Alghero / Fertilia Airport,Alghero,Sardinia,IT,40.632099,8.290770,87,Europe/Rome
AHU,GMTA,Cherif Al Idrissi Airport,Al Hoceima,Tanger-Tetouan-Al-Hoceima,MA,35.177101,-3.839520,95,Africa/Casablanca
AIA,KAIA,Alliance Municipal Airport,Alliance,Nebraska,US,42.053200,-102.804001,3931,America/Denver
AIN,PAWI,Wainwright Airport,Wainwright,Alaska,US,70.638000,-159.994995,41,America/Anchorage
AIR,SWRP,Aripuana Airport,Aripuana,Mato-Grosso,BR,-10.250278,-59.383888,623,America/Cuiaba
AIR,SSOU,Fazenda Inhumas Airport,Paracatu,Minas-Gerais,BR,-17.036943,-46.260277,1772,America/Sao_Paulo
AIT,NCAI,Aitutaki Airport,Aitutaki,,CK,-18.830900,-159.764008,14,Pacific/Rarotonga
AJA,LFKJ,Ajaccio-Napoleon Bonaparte Airport,Ajaccio/Napoleon Bonaparte,Corsica,FR,41.923599,8.802920,18,Europe/Paris
AJF,OESK,Al-Jawf Domestic Airport,Al-Jawf,Al-Jawf,SA,29.785101,40.099998,2261,Asia/Riyadh
AJI,LTCO,Agri Airport,Agri,Agri,TR,39.654541,43.025978,5462,Europe/Istanbul
AJL,VELP,Lengpui Airport,Aizawl,Mizoram,IN,23.840599,92.619698,1398,Asia/Kolkata
AJN,FMCV,Ouani Airport,Ouani,Anjouan,KM,-12.131700,44.430302,62,Indian/Comoro
AJR,ESNX,Arvidsjaur Airport,Arvidsjaur,Norrbotten,SE,65.590302,19.281900,1245,Europe/Stockholm
AJU,SBAR,Santa Maria Airport,Aracaju,Sergipe,BR,-10.984000,-37.070301,23,America/Maceio
AKA,ZLAK,Ankang Airport,Ankang,Shaanxi,CN,32.708099,108.931000,0,Asia/Shanghai
AKB,PAAK,Atka Airport,Atka,Alaska,US,52.220299,-174.205994,57,America/Adak
AKI,PFAK,Akiak Airport,Akiak,Alaska,US,60.902901,-161.231003,30,America/Anchorage
AKJ,RJEC,Asahikawa Airport,Asahikawa,Hokkaido,JP,43.670799,142.447006,721,Asia/Tokyo
AKK,PAKH,Akhiok Airport,Akhiok,Alaska,US,56.938702,-154.182999,44,America/Anchorage
AKL,NZAA,Auckland International Airport,Auckland,Auckland,NZ,-37.008099,174.792007,23,Pacific/Auckland
AKN,PAKN,King Salmon Airport,King Salmon,Alaska,US,58.676800,-156.649002,73,America/Anchorage
AKP,PAKP,Anaktuvuk Pass Airport,Anaktuvuk Pass,Alaska,US,68.133598,-151.742996,2102,America/Anchorage
AKR,DNAK,Akure Airport,Akure,Ondo,NG,7.246740,5.301010,1100,Africa/Lagos
AKS,AGGA,Auki Airport,Auki,,SB,-8.702570,160.682007,5,Pacific/Guadalcanal
AKU,ZWAK,Aksu Airport,Aksu,Xinjiang,CN,41.262501,80.291702,0,Asia/Shanghai
AKV,CYKO,Akulivik Airport,Akulivik,Quebec,CA,60.818600,-78.148598,75,America/Iqaluit
AKX,UATT,Aktobe Airport,Aktyubinsk,Aqtobe,KZ,50.245800,57.206699,738,Asia/Aqtobe
AKY,VYSW,Sittwe Airport,Sittwe,Rakhine,MM,20.132700,92.872597,27,Asia/Yangon
ALA,UAAA,Almaty Airport,Almaty,Almaty-Oblysy,KZ,43.352100,77.040497,2234,Asia/Almaty
ALB,KALB,Albany International Airport,Albany,New-York,US,42.748299,-73.801697,285,America/New_York
ALC,LEAL,Alicante International Airport,Alicante,Valencia,ES,38.282200,-0.558156,142,Europe/Madrid
ALF,ENAT,Alta Airport,Alta,Finnmark,NO,69.976097,23.371700,9,Europe/Oslo
ALG,DAAG,Houari Boumediene Airport,Algiers,Algiers,DZ,36.691002,3.215410,82,Africa/Algiers
ALH,YABA,Albany Airport,Albany,Western-Australia,AU,-34.943298,117.808998,233,Australia/Perth
ALI,KALI,Alice International Airport,Alice,Texas,US,27.740900,-98.026901,178,America/Chicago
ALO,KALO,Waterloo Regional Airport,Waterloo,Iowa,US,42.557098,-92.400299,873,America/Chicago
ALP,OSAP,Aleppo International Airport,Aleppo,Aleppo,SY,36.180698,37.224400,1276,Asia/Damascus
ALQ,SSLT,Alegrete Novo Airport,Alegrete,Rio-Grande-do-Sul,BR,-29.812700,-55.893398,459,America/Sao_Paulo
ALS,KALS,San Luis Valley Regional Bergman Field,Alamosa,Colorado,US,37.434898,-105.866997,7539,America/Denver
ALW,KALW,Walla Walla Regional Airport,Walla Walla,Washington,US,46.094898,-118.288002,1194,America/Los_Angeles
AMA,KAMA,Rick Husband Amarillo International Airport,Amarillo,Texas,US,35.219398,-101.706001,3607,America/Chicago
AMD,VAAH,Sardar Vallabhbhai Patel International Airport,Ahmedabad,Gujarat,IN,23.077200,72.634697,189,Asia/Kolkata
AMH,HAAM,Arba Minch Airport,,SNNPR,ET,6.039390,37.590500,3901,Africa/Addis_Ababa
AMM,OJAI,Queen Alia International Airport,Amman,Amman,JO,31.722601,35.993198,2395,Asia/Amman
AMQ,WAPP,Pattimura Airport Ambon,Ambon,Maluku,ID,-3.710260,128.089005,33,Asia/Jayapura
AMS,EHAM,Amsterdam Airport Schiphol,Amsterdam,North-Holland,NL,52.308601,4.763890,-11,Europe/Amsterdam
ANC,PANC,Ted Stevens Anchorage International Airport,Anchorage,Alaska,US,61.174400,-149.996002,152,America/Anchorage
ANF,SCFA,Cerro Moreno Airport,Antofagasta,Antofagasta,CL,-23.444500,-70.445099,455,America/Santiago
ANI,PANI,Aniak Airport,Aniak,Alaska,US,61.581600,-159.542999,88,America/Anchorage
ANR,EBAW,Antwerp International Airport (Deurne),Antwerp,Flanders,BE,51.189400,4.460280,39,Europe/Brussels
ANU,TAPA,V.C. Bird International Airport,St. George,Saint-George,AG,17.136700,-61.792702,62,America/Antigua
ANV,PANV,Anvik Airport,Anvik,Alaska,US,62.646702,-160.190994,291,America/Anchorage
ANX,ENAN,Andoya Airport,Andenes,Nordland,NO,69.292503,16.144199,43,Europe/Oslo
AOE,LTBY,Anadolu University Airport,Eskisehir,Eskişehir,TR,39.809898,30.519400,2588,Europe/Istanbul
AOG,ZYAS,Anshan Air Base,Anshan,Liaoning,CN,41.105301,122.853996,0,Asia/Shanghai
AOI,LIPY,Ancona / Falconara Airport,Ancona,The-Marches,IT,43.616299,13.362300,49,Europe/Rome
AOJ,RJSA,Aomori Airport,Aomori,Aomori,JP,40.734699,140.690994,664,Asia/Tokyo
AOK,LGKP,Karpathos Airport,Karpathos Island,South-Aegean,GR,35.421398,27.146000,66,Europe/Athens
AOO,KAOO,Altoona Blair County Airport,Altoona,Pennsylvania,US,40.296398,-78.320000,1503,America/New_York
AOR,WMKA,Sultan Abdul Halim Airport,Alor Satar,,MY,6.189670,100.398003,15,Asia/Kuala_Lumpur
APK,NTGD,Apataki Airport,Apataki,Iles-Tuamotu-Gambier,PF,-15.573600,-146.414993,8,Pacific/Tahiti
APL,FQNP,Nampula Airport,Nampula,Nampula,MZ,-15.105600,39.281799,1444,Africa/Maputo
APN,KAPN,Alpena County Regional Airport,Alpena,Michigan,US,45.078098,-83.560303,690,America/Detroit
APO,SKLC,Antonio Roldan Betancourt Airport,Carepa,Antioquia,CO,7.811960,-76.716400,46,America/Bogota
APW,NSFA,Faleolo International Airport,Apia,A'ana,WS,-13.830000,-172.007996,58,Pacific/Apia
AQG,ZSAQ,Anqing Airport,Anqing,Anhui,CN,30.582199,117.050003,0,Asia/Shanghai
AQI,OEPA,Hafr Al Batin Airport,Qaisumah,Eastern-Province,SA,28.335199,46.125099,1174,Asia/Riyadh
AQJ,OJAQ,Aqaba King Hussein International Airport,Aqaba,Aqaba,JO,29.611601,35.018101,175,Asia/Amman
AQP,SPQU,Rodriguez Ballon International Airport,Arequipa,Arequipa,PE,-16.341101,-71.583099,8405,America/Lima
ARC,PARC,Arctic Village Airport,Arctic Village,Alaska,US,68.114700,-145.578995,2092,America/Anchorage
ARD,WATM,Mali Airport,Alor Island,East-Nusa-Tenggara,ID,-8.132340,124.597000,10,Asia/Makassar
ARH,ULAA,Talagi Airport,Archangelsk,Arkhangelskaya,RU,64.600304,40.716702,62,Europe/Moscow
ARI,SCAR,Chacalluta Airport,Arica,Arica-y-Parinacota,CL,-18.348499,-70.338699,167,America/Lima
ARK,HTAR,Arusha Airport,Arusha,Arusha,TZ,-3.367790,36.633301,4550,Africa/Dar_es_Salaam
ARM,YARM,Armidale Airport,Armidale,New-South-Wales,AU,-30.528099,151.617004,3556,Australia/Sydney
ARN,ESSA,Stockholm-Arlanda Airport,Stockholm,Stockholm,SE,59.651901,17.918600,137,Europe/Stockholm
ART,KART,Watertown International Airport,Watertown,New-York,US,43.991901,-76.021698,325,America/New_York
ARU,SBAU,Aracatuba Airport,Aracatuba,Sao-Paulo,BR,-21.141300,-50.424702,1361,America/Sao_Paulo
ASB,UTAA,Ashgabat Airport,Ashgabat,Ashgabat,TM,37.986801,58.361000,692,Asia/Ashgabat
ASE,KASE,Aspen-Pitkin Co/Sardy Field,Aspen,Colorado,US,39.223202,-106.869003,7820,America/Denver
ASF,URWA,Astrakhan Airport,Astrakhan,Astrakhan,RU,46.283298,48.006302,-65,Europe/Astrakhan
ASJ,RJKA,Amami Airport,Amami,Kagoshima,JP,28.430599,129.712997,27,Asia/Tokyo
ASM,HHAS,Asmara International Airport,Asmara,Maekel,ER,15.291900,38.910702,7661,Africa/Asmara
ASO,HASO,Asosa Airport,Asosa,Binshangul-Gumuz,ET,10.018500,34.586300,5100,Africa/Addis_Ababa
ASP,YBAS,Alice Springs Airport,Alice Springs,Northern-Territory,AU,-23.806700,133.901993,1789,Australia/Darwin
ASR,LTAU,Kayseri Erkilet Airport,Kayseri,Kayseri,TR,38.770401,35.495399,3463,Europe/Istanbul
ASU,SGAS,Silvio Pettirossi International Airport,Asuncion,Central,PY,-25.240000,-57.520000,292,America/Asuncion
ASV,HKAM,Amboseli Airport,Amboseli National Park,Kajiado,KE,-2.645050,37.253101,3755,Africa/Nairobi
ASW,HESN,Aswan International Airport,Aswan,Aswan,EG,23.964399,32.820000,662,Africa/Cairo
ATA,SPHZ,Comandante FAP German Arias Graziani Airport,Anta,Ancash,PE,-9.347440,-77.598396,9097,America/Lima
ATD,AGAT,Uru Harbour Airport,Atoifi,,SB,-8.873330,161.011002,0,Pacific/Guadalcanal
ATH,LGAV,Eleftherios Venizelos International Airport,Athens,Attica,GR,37.936401,23.944500,308,Europe/Athens
ATK,PATQ,Atqasuk Edward Burnell Sr Memorial Airport,Atqasuk,Alaska,US,70.467300,-157.436005,96,America/Anchorage
ATL,KATL,Hartsfield Jackson Atlanta International Airport,Atlanta,Georgia,US,33.636700,-84.428101,1026,America/New_York
ATM,SBHT,Altamira Airport,Altamira,Para,BR,-3.253910,-52.254002,369,America/Santarem
ATQ,VIAR,Sri Guru Ram Dass Jee International Airport Amritsar,Amritsar,Punjab,IN,31.709600,74.797302,756,Asia/Kolkata
ATW,KATW,Appleton International Airport,Appleton,Wisconsin,US,44.258099,-88.519096,918,America/Chicago
ATY,KATY,Watertown Regional Airport,Watertown,South-Dakota,US,44.914001,-97.154701,1749,America/Chicago
ATZ,HEAT,Assiut International Airport,Assiut,Asyut,EG,27.046499,31.011999,772,Africa/Cairo
AUA,TNCA,Queen Beatrix International Airport,Oranjestad,,AW,12.501400,-70.015198,60,America/Aruba
AUC,SKUC,Santiago Perez Airport,Arauca,Arauca,CO,7.068880,-70.736900,420,America/Bogota
AUG,KAUG,Augusta State Airport,Augusta,Maine,US,44.320599,-69.797302,352,America/New_York
AUH,OMAA,Abu Dhabi International Airport,Abu Dhabi,Abu-Dhabi,AE,24.433001,54.651100,88,Asia/Dubai
AUK,PAUK,Alakanuk Airport,Alakanuk,Alaska,US,62.680042,-164.659927,10,America/Nome
AUQ,NTMN,Hiva Oa-Atuona Airport,,Iles-Marquises,PF,-9.768790,-139.011002,1481,Pacific/Marquesas
AUR,LFLW,Aurillac Airport,Aurillac,Auvergne-Rhone-Alpes,FR,44.891399,2.421940,2096,Europe/Paris
AUS,KAUS,Austin Bergstrom International Airport,Austin,Texas,US,30.194500,-97.669899,542,America/Chicago
AUU,YAUR,Aurukun Airport,,Queensland,AU,-13.353900,141.720993,31,Australia/Brisbane
AUX,SWGN,Araguaina Airport,Araguaina,Tocantins,BR,-7.227870,-48.240501,771,America/Araguaina
AUY,NVVA,Anelghowhat Airport,Anelghowhat,Tafea,VU,-20.249201,169.770996,7,Pacific/Efate
AVA,ZUAS,Anshun Huangguoshu Airport,Anshun,Beijing,CN,26.260556,105.873333,4812,Asia/Shanghai
AVL,KAVL,Asheville Regional Airport,Asheville,North-Carolina,US,35.436199,-82.541801,2165,America/New_York
AVP,KAVP,Wilkes Barre Scranton International Airport,Wilkes-Barre/Scranton,Pennsylvania,US,41.338501,-75.723396,962,America/New_York
AVV,YMAV,Avalon Airport,Melbourne,Victoria,AU,-38.039398,144.468994,35,Australia/Melbourne
AWA,HALA,Awassa Airport,Awassa,SNNPR,ET,7.067000,38.500000,5450,Africa/Addis_Ababa
AWD,NVVB,Aniwa Airport,Aniwa,Tafea,VU,-19.240000,169.604996,69,Pacific/Efate
AWZ,OIAW,Ahwaz Airport,Ahwaz,Khuzestan,IR,31.337400,48.762001,66,Asia/Tehran
AXA,TQPF,Wallblake Airport,The Valley,,AI,18.204800,-63.055099,127,America/Anguilla
AXD,LGAL,Dimokritos Airport,Alexandroupolis,East-Macedonia-and-Thrace,GR,40.855900,25.956301,24,Europe/Athens
AXJ,RJDA,Amakusa Airport,,Kumamoto,JP,32.482498,130.158997,340,Asia/Tokyo
AXM,SKAR,El Eden Airport,Armenia,Quindio,CO,4.452780,-75.766400,3990,America/Bogota
AXP,MYAP,Spring Point Airport,Spring Point,Acklins,BS,22.441799,-73.970901,11,America/Nassau
AXR,NTGU,Arutua Airport,,Iles-Tuamotu-Gambier,PF,-15.248300,-146.617004,9,Pacific/Tahiti
AXT,RJSK,Akita Airport,Akita,Akita,JP,39.615601,140.218994,313,Asia/Tokyo
AYP,SPHO,Coronel FAP Alfredo Mendivil Duarte Airport,Ayacucho,Ayacucho,PE,-13.154800,-74.204399,8917,America/Lima
AYQ,YAYE,Ayers Rock Connellan Airport,Ayers Rock,Northern-Territory,AU,-25.186100,130.975998,1626,Australia/Darwin
AYT,LTAI,Antalya International Airport,Antalya,Antalya,TR,36.898701,30.800501,177,Europe/Istanbul
AZA,KIWA,Phoenix-Mesa-Gateway Airport,Phoenix,Arizona,US,33.307800,-111.654999,1382,America/Phoenix
AZD,OIYY,Shahid Sadooghi Airport,Yazd,Yazd,IR,31.904900,54.276501,4054,Asia/Tehran
AZI,OMAD,Al Bateen Executive Airport,,Abu-Dhabi,AE,24.428301,54.458099,16,Asia/Dubai
AZO,KAZO,Kalamazoo Battle Creek International Airport,Kalamazoo,Michigan,US,42.234901,-85.552101,874,America/Detroit
AZR,DAUA,Touat Cheikh Sidi Mohamed Belkebir Airport,,Adrar,DZ,27.837601,-0.186414,919,Africa/Algiers
AZS,MDCY,Samana El Catey International Airport,Samana,Maria-Trinidad-Sanchez,DO,19.267000,-69.741997,30,America/Santo_Domingo
BAG,RPUB,Loakan Airport,Baguio City,Cordillera,PH,16.375099,120.620003,4251,Asia/Manila
BAH,OBBI,Bahrain International Airport,Manama,Muharraq,BH,26.270800,50.633598,6,Asia/Bahrain
BAL,LTCJ,Batman Airport,Batman,Batman,TR,37.929001,41.116600,1822,Europe/Istanbul
BAQ,SKBQ,Ernesto Cortissoz International Airport,Barranquilla,Atlantico,CO,10.889600,-74.780800,98,America/Bogota
BAS,AGGE,Ballalae Airport,Ballalae,,SB,-6.990745,155.886656,5,Pacific/Guadalcanal
BAU,SBBU,Bauru Airport,Bauru,Sao-Paulo,BR,-22.344999,-49.053799,2025,America/Sao_Paulo
BAV,ZBOW,Baotou Airport,Baotou,Inner-Mongolia,CN,40.560001,109.997002,3321,Asia/Shanghai
BAX,UNBB,Barnaul Airport,Barnaul,Altai-Krai,RU,53.363800,83.538498,837,Asia/Barnaul
BAY,LRBM,Tautii Magheraus Airport,Baia Mare,Maramureş,RO,47.658401,23.469999,605,Europe/Bucharest
BAZ,SWBC,Barcelos Airport,Barcelos,Amazonas,BR,-0.981292,-62.919601,112,America/Manaus
BBA,SCBA,Balmaceda Airport,Balmaceda,Aisen,CL,-45.916100,-71.689499,1722,America/Santiago
BBI,VEBS,Biju Patnaik Airport,Bhubaneswar,Odisha,IN,20.244400,85.817802,138,Asia/Kolkata
BBK,FBKE,Kasane Airport,Kasane,North-West,BW,-17.832899,25.162399,3289,Africa/Gaborone
BBN,WBGZ,Bario Airport,Bario,Sarawak,MY,3.733890,115.478996,3350,Asia/Kuching
BBU,LRBS,Baneasa International Airport,Bucharest,Bucureşti,RO,44.503201,26.102100,297,Europe/Bucharest
BCD,RPVB,Bacolod-Silay City International Airport,Bacolod City,Negros-Island-Region,PH,10.776400,123.014999,0,Asia/Manila
BCI,YBAR,Barcaldine Airport,Barcaldine,Queensland,AU,-23.565300,145.307007,878,Australia/Brisbane
BCM,LRBC,Bacau Airport,Bacau,Bacau,RO,46.521900,26.910299,607,Europe/Bucharest
BCN,LEBL,Barcelona International Airport,Barcelona,Catalonia,ES,41.297100,2.078460,12,Europe/Madrid
BCO,HABC,Baco Airport,Baco,,ET,5.782870,36.562000,0,Africa/Addis_Ababa
BCT,KBCT,Boca Raton Airport,Boca Raton,Florida,US,26.378500,-80.107697,13,America/New_York
BDA,TXKF,L.F. Wade International International Airport,Hamilton,Saint-Georgeʼs,BM,32.363998,-64.678703,12,Atlantic/Bermuda
BDB,YBUD,Bundaberg Airport,Bundaberg,Queensland,AU,-24.903900,152.319000,107,Australia/Brisbane
BDD,YBAU,Badu Island Airport,,Queensland,AU,-10.150000,142.173400,14,Australia/Brisbane
BDJ,WAOO,Syamsudin Noor Airport,Banjarmasin-Borneo Island,South-Kalimantan,ID,-3.442360,114.763000,66,Asia/Makassar
BDL,KBDL,Bradley International Airport,Hartford,Connecticut,US,41.938900,-72.683197,173,America/New_York
BDO,WICC,Husein Sastranegara International Airport,Bandung-Java Island,West-Java,ID,-6.900630,107.575996,2436,Asia/Jakarta
BDP,VNCG,Bhadrapur Airport,Bhadrapur,Eastern-Region,NP,26.570801,88.079597,300,Asia/Kathmandu
BDQ,VABO,Vadodara Airport,Vadodara,Gujarat,IN,22.336201,73.226303,129,Asia/Kolkata
BDR,KBDR,Igor I Sikorsky Memorial Airport,Bridgeport,Connecticut,US,41.163502,-73.126198,9,America/New_York
BDS,LIBR,Brindisi / Casale Airport,Brindisi,Apulia,IT,40.657600,17.947001,47,Europe/Rome
BDU,ENDU,Bardufoss Airport,Malselv,Troms,NO,69.055801,18.540400,252,Europe/Oslo
BEB,EGPL,Benbecula Airport,Balivanich,Scotland,GB,57.481098,-7.362780,19,Europe/London
BEG,LYBE,Belgrade Nikola Tesla Airport,Belgrad,,RS,44.818401,20.309099,335,Europe/Belgrade
BEJ,WALK,Barau(Kalimaru) Airport,Tanjung Redep-Borneo Island,East-Kalimantan,ID,2.155500,117.431999,59,Asia/Makassar
BEK,VIBY,Bareilly Air Force Station,,Uttar-Pradesh,IN,28.422100,79.450798,580,Asia/Kolkata
BEL,SBBE,Val de Cans/Julio Cezar Ribeiro International Airport,Belem,Para,BR,-1.379250,-48.476299,54,America/Belem
BEM,GMMD,Beni Mellal Airport,,Beni-Mellal-Khenifra,MA,32.400002,-6.333330,1670,Africa/Casablanca
BEM,FEFL,Bossembele Airport,Bossembele,Ombella-M'Poko,CF,5.267000,17.632999,2231,Africa/Bangui
BEN,HLLB,Benina International Airport,Benghazi,Banghazi,LY,32.096802,20.269501,433,Africa/Tripoli
BER,EDDB,Berlin Brandenburg Airport,Berlin,,DE,52.366667,13.503333,156,Europe/Berlin
BES,LFRB,Brest Bretagne Airport,Brest/Guipavas,Brittany,FR,48.447899,-4.418540,325,Europe/Paris
BET,PABE,Bethel Airport,Bethel,Alaska,US,60.779800,-161.837997,126,America/Anchorage
BEU,YBIE,Bedourie Airport,,Queensland,AU,-24.346100,139.460007,300,Australia/Brisbane
BEW,FQBR,Beira Airport,Beira,Sofala,MZ,-19.796400,34.907600,33,Africa/Maputo
BEY,OLBA,Beirut Rafic Hariri International Airport,Beirut,Mont-Liban,LB,33.820900,35.488400,87,Asia/Beirut
BFD,KBFD,Bradford Regional Airport,Bradford,Pennsylvania,US,41.803101,-78.640099,2143,America/New_York
BFF,KBFF,Western Neb. Rgnl/William B. Heilig Airport,Scottsbluff,Nebraska,US,41.874001,-103.596001,3967,America/Denver
BFI,KBFI,Boeing Field King County International Airport,Seattle,Washington,US,47.529999,-122.302002,21,America/Los_Angeles
BFJ,NFFA,Ba Airport,,Western,FJ,-17.535056,177.680917,20,Pacific/Fiji
BFL,KBFL,Meadows Field,Bakersfield,California,US,35.433601,-119.056999,510,America/Los_Angeles
BFM,KBFM,Mobile Downtown Airport,Mobile,Alabama,US,30.626801,-88.068100,26,America/Chicago
BFN,FABL,J B M Hertzog International Airport,Bloemfontain,Orange-Free-State,ZA,-29.092699,26.302401,4458,Africa/Johannesburg
BFS,EGAA,Belfast International Airport,Belfast,Northern-Ireland,GB,54.657501,-6.215830,268,Europe/London
BFV,VTUO,Buri Ram Airport,,Buriram,TH,15.229500,103.252998,590,Asia/Bangkok
BFX,FKKU,Bafoussam Airport,Bafoussam,West,CM,5.536920,10.354600,4347,Africa/Douala
BGA,SKBG,Palonegro Airport,Bucaramanga,Santander,CO,7.126500,-73.184800,3897,America/Bogota
BGF,FEFF,Bangui M'Poko International Airport,Bangui,Ombella-M'Poko,CF,4.398480,18.518801,1208,Africa/Bangui
BGI,TBPB,Sir Grantley Adams International Airport,Bridgetown,Christ-Church,BB,13.074600,-59.492500,169,America/Barbados
BGM,KBGM,Greater Binghamton/Edwin A Link field,Binghamton,New-York,US,42.208698,-75.979797,1636,America/New_York
BGN,UESG,Belaya Gora Airport,Belaya Gora,Sakha Republic,RU,68.556944,146.234722,82,Asia/Magadan
BGO,ENBR,Bergen Airport Flesland,Bergen,Hordaland,NO,60.293400,5.218140,170,Europe/Oslo
BGR,KBGR,Bangor International Airport,Bangor,Maine,US,44.807400,-68.828102,192,America/New_York
BGS,KBPG,Big Spring Mc Mahon-Wrinkle Airport,Big Spring,Texas,US,32.212601,-101.522003,2573,America/Chicago
BGW,ORBI,Baghdad International Airport,Baghdad,Baghdad,IQ,33.262501,44.234600,114,Asia/Baghdad
BGX,SBBG,Comandante Gustavo Kraemer Airport,Bage,Rio-Grande-do-Sul,BR,-31.390499,-54.112202,600,America/Sao_Paulo
BGY,LIME,Bergamo / Orio Al Serio Airport,Bergamo,Lombardy,IT,45.673901,9.704170,782,Europe/Rome
BHB,KBHB,Hancock County-Bar Harbor Airport,Bar Harbor,Maine,US,44.450001,-68.361504,83,America/New_York
BHD,EGAC,George Best Belfast City Airport,Belfast,Northern-Ireland,GB,54.618099,-5.872500,15,Europe/London
BHE,NZWB,Woodbourne Airport,Blenheim,Marlborough,NZ,-41.518299,173.869995,109,Pacific/Auckland
BHH,OEBH,Bisha Airport,,,SA,19.984400,42.620899,3887,Asia/Riyadh
BHI,SAZB,Comandante Espora Airport,Bahia Blanca,Buenos-Aires,AR,-38.725000,-62.169300,246,America/Argentina/Buenos_Aires
BHJ,VABJ,Bhuj Airport,Bhuj,Gujarat,IN,23.287800,69.670197,268,Asia/Kolkata
BHK,UTSB,Bukhara Airport,Bukhara,,UZ,39.775002,64.483299,751,Asia/Samarkand
BHM,KBHM,Birmingham-Shuttlesworth International Airport,Birmingham,Alabama,US,33.562901,-86.753502,650,America/Chicago
BHO,VABP,Bhopal Airport,Bhopal,Madhya-Pradesh,IN,23.287500,77.337402,1719,Asia/Kolkata
BHQ,YBHI,Broken Hill Airport,Broken Hill,New-South-Wales,AU,-32.001400,141.472000,958,Australia/Broken_Hill
BHR,VNBP,Bharatpur Airport,Bharatpur,Central-Region,NP,27.678101,84.429398,600,Asia/Kathmandu
BHU,VABV,Bhavnagar Airport,Bhavnagar,Gujarat,IN,21.752199,72.185204,44,Asia/Kolkata
BHX,EGBB,Birmingham International Airport,Birmingham,England,GB,52.453899,-1.748030,327,Europe/London
BHY,ZGBH,Beihai Airport,Beihai,Guangxi,CN,21.539400,109.293999,0,Asia/Shanghai
BIA,LFKB,Bastia-Poretta Airport,Bastia/Poretta,Corsica,FR,42.552700,9.483730,26,Europe/Paris
BIH,KBIH,Eastern Sierra Regional Airport,Bishop,California,US,37.373100,-118.363998,4124,America/Los_Angeles
BIK,WABB,Frans Kaisiepo Airport,Biak-Supiori Island,Papua,ID,-1.190020,136.108002,46,Asia/Jayapura
BIL,KBIL,Billings Logan International Airport,Billings,Montana,US,45.807701,-108.542999,3652,America/Denver
BIM,MYBS,South Bimini Airport,South Bimini,Bimini,BS,25.699900,-79.264702,10,America/Nassau
BIO,LEBB,Bilbao Airport,Bilbao,Basque-Country,ES,43.301102,-2.910610,138,Europe/Madrid
BIQ,LFBZ,Biarritz-Anglet-Bayonne Airport,Biarritz/Anglet/Bayonne,Nouvelle-Aquitaine,FR,43.468399,-1.523320,245,Europe/Paris
BIR,VNVT,Biratnagar Airport,Biratnagar,Eastern-Region,NP,26.481501,87.264000,236,Asia/Kathmandu
BIS,KBIS,Bismarck Municipal Airport,Bismarck,North-Dakota,US,46.772701,-100.746002,1661,America/Chicago
BJA,DAAE,Soummam Airport,Bejaia,Bejaia,DZ,36.712002,5.069920,20,Africa/Algiers
BJC,KBJC,Rocky Mountain Metropolitan Airport,Denver,Colorado,US,39.908798,-105.116997,5673,America/Denver
BJF,ENBS,Batsfjord Airport,Batsfjord,Finnmark,NO,70.600502,29.691401,490,Europe/Oslo
BJI,KBJI,Bemidji Regional Airport,Bemidji,Minnesota,US,47.509399,-94.933701,1391,America/Chicago
BJL,GBYD,Banjul International Airport,Banjul,Western,GM,13.338000,-16.652201,95,Africa/Banjul
BJM,HBBA,Bujumbura International Airport,Bujumbura,Bujumbura-Mairie,BI,-3.324020,29.318501,2582,Africa/Bujumbura
BJR,HABD,Bahir Dar Airport,Bahir Dar,Amhara,ET,11.608100,37.321602,5978,Africa/Addis_Ababa
BJV,LTFE,Milas Bodrum International Airport,Bodrum,Mugla,TR,37.250599,27.664301,21,Europe/Istanbul
BJW,WATB,Bajawa Soa Airport,Bajawa,East-Nusa-Tenggara,ID,-8.707435,121.057427,4326,Asia/Makassar
BJW,WRKB,Padhameleda Airport,Bajawa-Flores Island,East-Nusa-Tenggara,ID,-8.808140,120.996002,4317,Asia/Makassar
BJX,MMLO,Del Bajio International Airport,Silao,Guanajuato,MX,20.993500,-101.481003,5956,America/Mexico_City
BJZ,LEBZ,Badajoz Airport,Badajoz,Extremadura,ES,38.891300,-6.821330,609,Europe/Madrid
BKA,UUBB,Bykovo Airport,Moscow,Moscow-Oblast,RU,55.617199,38.060001,427,Europe/Moscow
BKB,VIBK,Nal Airport,Bikaner,Rajasthan,IN,28.070601,73.207199,750,Asia/Kolkata
BKC,PABL,Buckland Airport,Buckland,Alaska,US,65.981598,-161.149002,31,America/Anchorage
BKG,KBBG,Branson Airport,Branson,Missouri,US,36.532082,-93.200544,1302,America/Chicago
BKI,WBKK,Kota Kinabalu International Airport,Kota Kinabalu,Sabah,MY,5.937210,116.051003,10,Asia/Kuching
BKK,VTBS,Suvarnabhumi Airport,Bangkok,Samut-Prakan,TH,13.681100,100.747002,5,Asia/Bangkok
BKM,WBGQ,Bakalalan Airport,Bakalalan,Sarawak,MY,3.974000,115.617996,2900,Asia/Kuching
BKO,GABS,Senou Airport,Senou,Bamako,ML,12.533500,-7.949940,1247,Africa/Bamako
BKQ,YBCK,Blackall Airport,Blackall,Queensland,AU,-24.427799,145.429001,928,Australia/Brisbane
BKS,WIPL,Padang Kemiling (Fatmawati Soekarno) Airport,Bengkulu-Sumatra Island,,ID,-3.863700,102.338997,50,Asia/Jakarta
BKW,KBKW,Raleigh County Memorial Airport,Beckley,West-Virginia,US,37.787300,-81.124199,2504,America/New_York
BKZ,HTBU,Bukoba Airport,Bukoba,Kagera,TZ,-1.332000,31.821200,3745,Africa/Dar_es_Salaam
BLA,SVBC,General Jose Antonio Anzoategui International Airport,Barcelona,Anzoategui,VE,10.107100,-64.689201,26,America/Caracas
BLB,MPHO,Howard Airport,Panama City,Panama,PA,8.914790,-79.599602,52,America/Panama
BLB,MPPA,Howard/Panama Pacifico International Airport,Panama City,Panama,PA,8.914790,-79.599602,52,America/Panama
BLD,KBVU,Boulder City Municipal Airport,Boulder City,Nevada,US,35.947498,-114.861000,2201,America/Los_Angeles
BLI,KBLI,Bellingham International Airport,Bellingham,Washington,US,48.792801,-122.538002,170,America/Los_Angeles
BLJ,DABT,Batna Airport,Batna,Batna,DZ,35.752102,6.308590,2697,Africa/Algiers
BLL,EKBI,Billund Airport,Billund,South-Denmark,DK,55.740299,9.151780,247,Europe/Copenhagen
BLQ,LIPE,Bologna / Borgo Panigale Airport,Bologna,Emilia-Romagna,IT,44.535400,11.288700,123,Europe/Rome
BLR,VOBL,Bengaluru International Airport,Bangalore,Karnataka,IN,13.197900,77.706299,3000,Asia/Kolkata
BLV,KBLV,Scott AFB/Midamerica Airport,Belleville,Illinois,US,38.545200,-89.835197,459,America/Chicago
BLZ,FWCL,Chileka International Airport,Blantyre,Southern-Region,MW,-15.679100,34.973999,2555,Africa/Blantyre
BMA,ESSB,Stockholm-Bromma Airport,Stockholm,Stockholm,SE,59.354401,17.941700,47,Europe/Stockholm
BME,YBRM,Broome International Airport,Broome,Western-Australia,AU,-17.944700,122.232002,56,Australia/Perth
BMI,KBMI,Central Illinois Regional Airport at Bloomington-Normal,Bloomington-Normal,Illinois,US,40.477100,-88.915901,871,America/Chicago
BMO,VYBM,Banmaw Airport,Banmaw,Kachin,MM,24.268999,97.246201,370,Asia/Yangon
BMU,WADB,Muhammad Salahuddin Airport,Bima-Sumbawa Island,West-Nusa-Tenggara,ID,-8.539650,118.686996,3,Asia/Makassar
BMV,VVBM,Buon Ma Thuot Airport,Buon Ma Thuot,Ha-Nội,VN,12.668300,108.120003,1729,Asia/Ho_Chi_Minh
BMW,DATM,Bordj Badji Mokhtar Airport,Bordj Badji Mokhtar,Adrar,DZ,21.375000,0.923889,1303,Africa/Algiers
BNA,KBNA,Nashville International Airport,Nashville,Tennessee,US,36.124500,-86.678200,599,America/Chicago
BND,OIKB,Bandar Abbas International Airport,Bandar Abbas,Hormozgan,IR,27.218300,56.377800,22,Asia/Tehran
BNE,YBBN,Brisbane International Airport,Brisbane,Queensland,AU,-27.384199,153.117004,13,Australia/Brisbane
BNI,DNBE,Benin Airport,Benin,Edo,NG,6.316980,5.599500,258,Africa/Lagos
BNK,YBNA,Ballina Byron Gateway Airport,Ballina,New-South-Wales,AU,-28.833900,153.561996,7,Australia/Sydney
BNN,ENBN,Bronnoysund Airport,Bronnoy,Nordland,NO,65.461098,12.217500,25,Europe/Oslo
BNS,SVBI,Barinas Airport,Barinas,Barinas,VE,8.619570,-70.220802,666,America/Caracas
BNX,LQBK,Banja Luka International Airport,Banja Luka,Srspka,BA,44.941399,17.297501,400,Europe/Sarajevo
BNY,AGGB,Bellona/Anua Airport,Anua,,SB,-11.302222,159.798333,60,Pacific/Guadalcanal
BOB,NTTB,Bora Bora Airport,Motu Mute,Leeward-Islands,PF,-16.444401,-151.751007,10,Pacific/Tahiti
BOC,MPBO,Bocas Del Toro International Airport,Isla Colon,Bocas-del-Toro,PA,9.340850,-82.250801,10,America/Panama
BOD,LFBD,Bordeaux-Merignac (BA 106) Airport,Bordeaux/Merignac,Nouvelle-Aquitaine,FR,44.828300,-0.715556,162,Europe/Paris
BOG,SKBO,El Dorado International Airport,Bogota,Bogota-D-C-,CO,4.701590,-74.146900,8361,America/Bogota
BOH,EGHH,Bournemouth Airport,Bournemouth,England,GB,50.779999,-1.842500,38,Europe/London
BOI,KBOI,Boise Air Terminal/Gowen field,Boise,Idaho,US,43.564400,-116.223000,2871,America/Boise
BOJ,LBBG,Burgas Airport,Burgas,Burgas,BG,42.569599,27.515200,135,Europe/Sofia
BOM,VABB,Chhatrapati Shivaji International Airport,Mumbai,Maharashtra,IN,19.088699,72.867897,37,Asia/Kolkata
BON,TNCB,Flamingo International Airport,Kralendijk,Bonaire,BQ,12.131000,-68.268501,20,America/Kralendijk
BOO,ENBO,Bodo Airport,Bodo,Nordland,NO,67.269203,14.365300,42,Europe/Oslo
BOS,KBOS,General Edward Lawrence Logan International Airport,Boston,Massachusetts,US,42.364300,-71.005203,20,America/New_York
BOY,DFOO,Bobo Dioulasso Airport,Bobo Dioulasso,Hauts-Bassins,BF,11.160100,-4.330970,1511,Africa/Ouagadougou
BPG,SBBW,Barra do Garcas Airport,Barra Do Garcas,Mato-Grosso,BR,-15.861300,-52.388901,1147,America/Cuiaba
BPL,ZWBL,Alashankou Bole (Bortala) airport,Bole,Xinjiang,CN,44.895000,82.300000,1253,Asia/Shanghai
BPN,WALL,Sepinggan International Airport,Balikpapan-Borneo Island,East-Kalimantan,ID,-1.268270,116.893997,12,Asia/Makassar
BPS,SBPS,Porto Seguro Airport,Porto Seguro,Bahia,BR,-16.438601,-39.080898,168,America/Bahia
BPT,KBPT,Southeast Texas Regional Airport,Beaumont/Port Arthur,Texas,US,29.950800,-94.020699,15,America/Chicago
BPX,ZUBD,Qamdo Bangda Airport,Bangda,Tibet,CN,30.553600,97.108299,14219,Asia/Shanghai
BQB,YBLN,Busselton Regional Airport,Busselton,Western-Australia,AU,-33.688423,115.401596,55,Australia/Perth
BQD,BIBR,Budardalur Airport,Budardalur,West,IS,65.075302,-21.800301,131,Atlantic/Reykjavik
BQK,KBQK,Brunswick Golden Isles Airport,Brunswick,Georgia,US,31.258801,-81.466499,26,America/New_York
BQL,YBOU,Boulia Airport,,Queensland,AU,-22.913300,139.899994,542,Australia/Brisbane
BQN,TJBQ,Rafael Hernandez Airport,Aguadilla,Aguadilla,PR,18.494900,-67.129402,237,America/Puerto_Rico
BQS,UHBB,Ignatyevo Airport,Blagoveschensk,Amur,RU,50.425400,127.412003,638,Asia/Yakutsk
BQW,YBGO,Balgo Hill Airport,,Western-Australia,AU,-20.148300,127.973000,439,Australia/Perth
BRA,SNBR,Barreiras Airport,Barreiras,Bahia,BR,-12.078900,-45.008999,2447,America/Bahia
BRB,SBRR,Barreirinhas Airport,,Maranhao,BR,-2.755556,-42.810000,40,America/Fortaleza
BRC,SAZS,San Carlos De Bariloche Airport,San Carlos de Bariloche,Rio-Negro,AR,-41.151199,-71.157501,2774,America/Argentina/Salta
BRD,KBRD,Brainerd Lakes Regional Airport,Brainerd,Minnesota,US,46.398300,-94.138100,1232,America/Chicago
BRE,EDDW,Bremen Airport,Bremen,Bremen,DE,53.047501,8.786670,14,Europe/Berlin
BRI,LIBD,Bari / Palese International Airport,Bari,Apulia,IT,41.138901,16.760599,177,Europe/Rome
BRK,YBKE,Bourke Airport,,New-South-Wales,AU,-30.039200,145.951996,352,Australia/Sydney
BRL,KBRL,Southeast Iowa Regional Airport,Burlington,Iowa,US,40.783199,-91.125504,698,America/Chicago
BRM,SVBM,Barquisimeto International Airport,Barquisimeto,Lara,VE,10.042747,-69.358620,2042,America/Caracas
BRN,LSZB,Bern Belp Airport,Bern,Bern,CH,46.914101,7.497150,1674,Europe/Zurich
BRO,KBRO,Brownsville South Padre Island International Airport,Brownsville,Texas,US,25.906799,-97.425903,22,America/Chicago
BRQ,LKTB,Brno-Turany Airport,Brno,South-Moravian,CZ,49.151299,16.694401,778,Europe/Prague
BRR,EGPR,Barra Airport,Eoligarry,Scotland,GB,57.022800,-7.443060,5,Europe/London
BRS,EGGD,Bristol International Airport,Bristol,England,GB,51.382702,-2.719090,622,Europe/London
BRU,EBBR,Brussels Airport,Brussels,Flanders,BE,50.901402,4.484440,184,Europe/Brussels
BRW,PABR,Wiley Post Will Rogers Memorial Airport,Barrow,Alaska,US,71.285400,-156.766006,44,America/Anchorage
BSA,HCMF,Bosaso Airport,Bosaso,Bari,SO,11.275300,49.149399,3,Africa/Mogadishu
BSB,SBBR,Presidente Juscelino Kubistschek International Airport,Brasilia,Federal-District,BR,-15.869167,-47.920834,3497,America/Sao_Paulo
BSC,SKBS,Jose Celestino Mutis Airport,Bahia Solano,Choco,CO,6.202920,-77.394700,80,America/Bogota
BSD,ZPBS,Baoshan Yunduan Airport,,Yunnan,CN,25.053301,99.168297,0,Asia/Shanghai
BSG,FGBT,Bata Airport,,Litoral,GQ,1.905470,9.805680,13,Africa/Malabo
BSK,DAUB,Biskra Airport,Biskra,Biskra,DZ,34.793301,5.738230,289,Africa/Algiers
BSL,LFSB,EuroAirport Basel-Mulhouse-Freiburg Airport,Bale/Mulhouse,Grand-Est,FR,47.589600,7.529910,885,Europe/Paris
BSO,RPUO,Basco Airport,Basco,Cagayan-Valley,PH,20.451300,121.980003,291,Asia/Manila
BSR,ORMM,Basrah International Airport,Basrah,Basra,IQ,30.549101,47.662102,11,Asia/Baghdad
BTC,VCCB,Batticaloa Airport,Batticaloa,Eastern-Province,LK,7.705760,81.678802,20,Asia/Colombo
BTH,WIDD,Hang Nadim Airport,Batam Island,,ID,1.121030,104.119003,126,Asia/Jakarta
BTI,PABA,Barter Island LRRS Airport,Barter Island Lrrs,Alaska,US,70.134003,-143.582001,2,America/Anchorage
BTJ,WITT,Sultan Iskandarmuda Airport,Banda Aceh-Sumatra Island,Aceh,ID,5.523520,95.420403,65,Asia/Jakarta
BTK,UIBB,Bratsk Airport,Bratsk,Irkutsk,RU,56.370602,101.697998,1610,Asia/Irkutsk
BTM,KBTM,Bert Mooney Airport,Butte,Montana,US,45.954800,-112.497002,5550,America/Denver
BTR,KBTR,Baton Rouge Metropolitan Ryan Field,Baton Rouge,Louisiana,US,30.533199,-91.149597,70,America/Chicago
BTS,LZIB,M. R. Stefanik Airport,Bratislava,Bratislavsky,SK,48.170200,17.212700,436,Europe/Bratislava
BTT,PABT,Bettles Airport,Bettles,Alaska,US,66.913902,-151.529007,647,America/Anchorage
BTU,WBGB,Bintulu Airport,Bintulu,Sarawak,MY,3.123850,113.019997,74,Asia/Kuching
BTV,KBTV,Burlington International Airport,Burlington,Vermont,US,44.471901,-73.153297,335,America/New_York
BTW,WAOC,Batu Licin Airport,Batu Licin-Borneo Island,South-Kalimantan,ID,-3.412410,115.995003,3,Asia/Makassar
BUA,AYBK,Buka Airport,Buka Island,Bougainville,PG,-5.422320,154.673004,11,Pacific/Bougainville
BUC,YBKT,Burketown Airport,,Queensland,AU,-17.748600,139.533997,21,Australia/Brisbane
BUD,LHBP,Budapest Liszt Ferenc International Airport,Budapest,Budapest,HU,47.436901,19.255600,495,Europe/Budapest
BUF,KBUF,Buffalo Niagara International Airport,Buffalo,New-York,US,42.940498,-78.732201,728,America/New_York
BUN,SKBU,Gerardo Tobar Lopez Airport,Buenaventura,Valle-del-Cauca,CO,3.819630,-76.989800,48,America/Bogota
BUP,VIBT,Bhatinda Air Force Station,,Punjab,IN,30.270100,74.755798,662,Asia/Kolkata
BUQ,FVBU,Joshua Mqabuko Nkomo International Airport,Bulawayo,Matabeleland-North,ZW,-20.017401,28.617901,4359,Africa/Harare
BUR,KBUR,Bob Hope Airport,Burbank,California,US,34.200699,-118.359001,778,America/Los_Angeles
BUS,UGSB,Batumi International Airport,Batumi,Ajaria,GE,41.610298,41.599701,105,Asia/Tbilisi
BUW,WAWB,Betoambari Airport,Bau Bau-Butung Island,Southeast-Sulawesi,ID,-5.486880,122.569000,164,Asia/Makassar
BUX,FZKA,Bunia Airport,,,CD,1.565720,30.220800,4045,Africa/Lubumbashi
BUZ,OIBB,Bushehr Airport,Bushehr,Bushehr,IR,28.944799,50.834599,68,Asia/Tehran
BVA,LFOB,Paris Beauvais Tille Airport,Beauvais/Tille,Hauts-de-France,FR,49.454399,2.112780,359,Europe/Paris
BVB,SBBV,Atlas Brasil Cantanhede Airport,Boa Vista,Roraima,BR,2.841389,-60.692223,276,America/Boa_Vista
BVC,GVBA,Rabil Airport,Rabil,Boa-Vista,CV,16.136499,-22.888901,69,Atlantic/Cape_Verde
BVE,LFBV,Brive-La Roche Airport,Brive-la-Gaillarde,Nouvelle-Aquitaine,FR,45.150799,1.469170,379,Europe/Paris
BVE,LFSL,Toul Rosieres Air Base,St Dizier,Grand-Est,FR,48.779999,5.980000,936,Europe/Paris
BVG,ENBV,Berlevag Airport,Berlevag,Finnmark,NO,70.871399,29.034201,42,Europe/Oslo
BVH,SBVH,Vilhena Airport,Vilhena,Rondonia,BR,-12.694400,-60.098301,2018,America/Cuiaba
BVI,YBDV,Birdsville Airport,,Queensland,AU,-25.897499,139.348007,159,Australia/Brisbane
BVS,SNVS,Breves Airport,Breves,Para,BR,-1.636530,-50.443600,98,America/Belem
BWA,VNBW,Bhairahawa Airport,Bhairawa,Western-Region,NP,27.505699,83.416298,358,Asia/Kathmandu
BWI,KBWI,Baltimore/Washington International Thurgood Marshal Airport,Baltimore,Maryland,US,39.175400,-76.668297,146,America/New_York
BWK,LDSB,Brac Airport,Brac Island,Split-Dalmatia,HR,43.285702,16.679701,1776,Europe/Zagreb
BWN,WBSB,Brunei International Airport,Bandar Seri Begawan,,BN,4.944200,114.928001,73,Asia/Brunei
BWT,YWYY,Wynyard Airport,Burnie,Tasmania,AU,-40.998901,145.731003,62,Australia/Hobart
BXG,YBDG,Bendigo Airport,,Victoria,AU,-36.739399,144.330002,705,Australia/Melbourne
BXU,RPME,Bancasi Airport,Butuan City,Caraga,PH,8.951320,125.477997,141,Asia/Manila
BXY,UAOL,Krainiy Airport,Baikonur,Baikonur,KZ,45.622002,63.215000,299,Asia/Qyzylorda
BYC,SLYA,Yacuiba Airport,Yacuiba,Tarija,BO,-21.960899,-63.651699,2112,America/La_Paz
BYK,DIBK,Bouake Airport,,Vallee-du-Bandama,CI,7.738800,-5.073670,1230,Africa/Abidjan
BYN,ZMBH,Bayankhongor Airport,Bayankhongor,Bayanhongor,MN,46.163300,100.704002,6085,Asia/Ulaanbaatar
BYO,SBDB,Bonito Airport,Bonito,Mato-Grosso-do-Sul,BR,-21.229445,-56.456112,1180,America/Campo_Grande
BZE,MZBZ,Philip S. W. Goldson International Airport,Belize City,Belize,BZ,17.539101,-88.308197,15,America/Belize
BZG,EPBY,Bydgoszcz Ignacy Jan Paderewski Airport,Bydgoszcz,Kujawsko-Pomorskie,PL,53.096802,17.977699,235,Europe/Warsaw
BZL,VGBR,Barisal Airport,Barisal,Barisal,BD,22.801001,90.301201,23,Asia/Dhaka
BZN,KBZN,Gallatin Field,Bozeman,Montana,US,45.777500,-111.153000,4473,America/Denver
BZO,LIPB,Bolzano Airport,Bolzano,Trentino-Alto-Adige,IT,46.460201,11.326400,789,Europe/Rome
BZR,LFMU,Beziers-Vias Airport,Beziers/Vias,Occitanie,FR,43.323502,3.353900,56,Europe/Paris
BZV,FCBB,Maya-Maya Airport,Brazzaville,Brazzaville,CG,-4.251700,15.253000,1048,Africa/Brazzaville
CAB,FNCA,Cabinda Airport,Cabinda,Cabinda,AO,-5.596990,12.188400,66,Africa/Luanda
CAC,SBCA,Cascavel Airport,Cascavel,Parana,BR,-25.000299,-53.500801,2473,America/Sao_Paulo
CAE,KCAE,Columbia Metropolitan Airport,Columbia,South-Carolina,US,33.938801,-81.119499,236,America/New_York
CAG,LIEE,Cagliari / Elmas Airport,Cagliari,Sardinia,IT,39.251499,9.054280,13,Europe/Rome
CAH,VVCM,Ca Mau Airport,Ca Mau City,Cần-Thơ,VN,9.177667,105.177778,6,Asia/Ho_Chi_Minh
CAI,HECA,Cairo International Airport,Cairo,Cairo,EG,30.121901,31.405600,382,Africa/Cairo
CAK,KCAK,Akron Canton Regional Airport,Akron,Ohio,US,40.916100,-81.442200,1228,America/New_York
CAL,EGEC,Campbeltown Airport,Campbeltown,Scotland,GB,55.437199,-5.686390,42,Europe/London
CAN,ZGGG,Guangzhou Baiyun International Airport,Guangzhou,Guangdong,CN,23.392401,113.299004,50,Asia/Shanghai
CAP,MTCH,Cap Haitien International Airport,Cap Haitien,Nord,HT,19.733000,-72.194702,10,America/Port-au-Prince
CAU,SNRU,Caruaru Airport,Caruaru,Pernambuco,BR,-8.282390,-36.013500,1891,America/Recife
CAW,SBCP,Bartolomeu Lisandro Airport,Campos Dos Goytacazes,Rio-de-Janeiro,BR,-21.698299,-41.301701,57,America/Sao_Paulo
CAY,SOCA,Cayenne-Rochambeau Airport,Cayenne / Rochambeau,Guyane,GF,4.819810,-52.360401,26,America/Cayenne
CAZ,YCBA,Cobar Airport,,New-South-Wales,AU,-31.538300,145.794006,724,Australia/Sydney
CBB,SLCB,Jorge Wilsterman International Airport,Cochabamba,Cochabamba,BO,-17.421101,-66.177101,8360,America/La_Paz
CBG,EGSC,Cambridge Airport,Cambridge,England,GB,52.205002,0.175000,47,Europe/London
CBH,DAOR,Bechar Boudghene Ben Ali Lotfi Airport,Bechar,Bechar,DZ,31.645700,-2.269860,2661,Africa/Algiers
CBL,SVCB,Ciudad Bolivar Airport,,Bolivar,VE,8.122161,-63.536957,197,America/Caracas
CBO,RPMC,Awang Airport,Cotabato City,ARMM,PH,7.165240,124.209999,189,Asia/Manila
CBQ,DNCA,Margaret Ekpo International Airport,Calabar,Cross-River,NG,4.976020,8.347200,210,Africa/Lagos
CBR,YSCB,Canberra International Airport,Canberra,ACT,AU,-35.306900,149.195007,1886,Australia/Sydney
CBT,FNCT,Catumbela Airport,Catumbela,Benguela,AO,-12.479200,13.486900,0,Africa/Luanda
CCC,MUCC,Jardines Del Rey Airport,Cayo Coco,Ciego-de-Avila,CU,22.461000,-78.328400,13,America/Havana
CCF,LFMK,Carcassonne Airport,Carcassonne/Salvaza,Occitanie,FR,43.216000,2.306320,433,Europe/Paris
CCJ,VOCL,Calicut International Airport,Calicut,Kerala,IN,11.136800,75.955299,342,Asia/Kolkata
CCK,YPCC,Cocos (Keeling) Islands Airport,Cocos (Keeling) Islands,,CC,-12.188300,96.833900,10,Indian/Cocos
CCP,SCIE,Carriel Sur Airport,Concepcion,Biobio,CL,-36.772701,-73.063103,26,America/Santiago
CCR,KCCR,Buchanan Field,Concord,California,US,37.989700,-122.056999,26,America/Los_Angeles
CCS,SVMI,Maiquetia (Simon Bolivar Internacional) Airport,Caracas,Vargas,VE,10.603117,-66.990585,235,America/Caracas
CCU,VECC,Netaji Subhash Chandra Bose International Airport,Kolkata,West-Bengal,IN,22.654699,88.446701,16,Asia/Kolkata
CCV,NVSF,Craig Cove Airport,Craig Cove,Malampa,VU,-16.264999,167.923996,69,Pacific/Efate
CDB,PACD,Cold Bay Airport,Cold Bay,Alaska,US,55.206100,-162.725006,96,America/Nome
CDC,KCDC,Cedar City Regional Airport,Cedar City,Utah,US,37.701000,-113.098999,5622,America/Denver
CDG,LFPG,Charles de Gaulle International Airport,Paris,Ile-de-France,FR,49.012798,2.550000,392,Europe/Paris
CDP,VOCP,Cuddapah Airport,,Andhra-Pradesh,IN,14.510000,78.772797,430,Asia/Kolkata
CDR,KCDR,Chadron Municipal Airport,Chadron,Nebraska,US,42.837601,-103.095001,3297,America/Denver
CDT,LECN,Castellon De La Plana Airport,Castellon de La Plana,Valencia,ES,39.999199,0.026111,20,Europe/Madrid
CDT,LECH,Calamocha Airport,Calamocha,Aragon,ES,40.900002,-1.304120,2936,Europe/Madrid
CDV,PACV,Merle K (Mudhole) Smith Airport,Cordova,Alaska,US,60.491798,-145.477997,54,America/Anchorage
CEB,RPVM,Mactan Cebu International Airport,Lapu-Lapu City,Central-Visayas,PH,10.307500,123.978996,31,Asia/Manila
CEC,KCEC,Jack Mc Namara Field Airport,Crescent City,California,US,41.780201,-124.236999,61,America/Los_Angeles
CED,YCDU,Ceduna Airport,,South-Australia,AU,-32.130600,133.710007,77,Australia/Adelaide
CEE,ULWC,Cherepovets Airport,Cherepovets,Vologda,RU,59.276667,38.028333,377,Europe/Moscow
CEI,VTCT,Chiang Rai International Airport,Chiang Rai,Chiang-Rai,TH,19.952299,99.882896,1280,Asia/Bangkok
CEK,USCC,Chelyabinsk Balandino Airport,Chelyabinsk,Chelyabinsk,RU,55.305801,61.503300,769,Asia/Yekaterinburg
CEM,PACE,Central Airport,Central,Alaska,US,65.573799,-144.783005,937,America/Anchorage
CEN,MMCN,Ciudad Obregon International Airport,Ciudad Obregon,Sonora,MX,27.392599,-109.833000,243,America/Hermosillo
CEZ,KCEZ,Cortez Municipal Airport,Cortez,Colorado,US,37.303001,-108.627998,5918,America/Denver
CFB,SBCB,Cabo Frio Airport,Cabo Frio,Rio-de-Janeiro,BR,-22.921700,-42.074299,23,America/Sao_Paulo
CFE,LFLC,Clermont-Ferrand Auvergne Airport,Clermont-Ferrand/Auvergne,Auvergne-Rhone-Alpes,FR,45.786701,3.169170,1090,Europe/Paris
CFG,MUCF,Jaime Gonzalez Airport,Cienfuegos,Cienfuegos,CU,22.150000,-80.414200,102,America/Havana
CFN,EIDL,Donegal Airport,Donegal,Ulster,IE,55.044201,-8.341000,30,Europe/Dublin
CFR,LFRK,Caen-Carpiquet Airport,Caen/Carpiquet,Normandy,FR,49.173302,-0.450000,256,Europe/Paris
CFS,YSCH,Coffs Harbour Airport,Coffs Harbour,New-South-Wales,AU,-30.320601,153.115997,18,Australia/Sydney
CFU,LGKR,Ioannis Kapodistrias International Airport,Kerkyra Island,Ionian-Islands,GR,39.601898,19.911699,6,Europe/Athens
CGB,SBCY,Marechal Rondon Airport,Cuiaba,Mato-Grosso,BR,-15.652900,-56.116699,617,America/Cuiaba
CGD,ZGCD,Changde Airport,Changde,Hunan,CN,28.918900,111.639999,128,Asia/Shanghai
CGH,SBSP,Congonhas Airport,Sao Paulo,Sao-Paulo,BR,-23.626110,-46.656387,2631,America/Sao_Paulo
CGI,KCGI,Cape Girardeau Regional Airport,Cape Girardeau,Missouri,US,37.225300,-89.570801,342,America/Chicago
CGK,WIII,Soekarno-Hatta International Airport,Jakarta,,ID,-6.125570,106.655998,34,Asia/Jakarta
CGM,RPMH,Camiguin Airport,,Northern-Mindanao,PH,9.253520,124.707001,53,Asia/Manila
CGN,EDDK,Cologne Bonn Airport,Cologne,North-Rhine-Westphalia,DE,50.865898,7.142740,302,Europe/Berlin
CGO,ZHCC,Xinzheng Airport,Zhengzhou,Henan,CN,34.519699,113.841003,495,Asia/Shanghai
CGP,VGEG,Shah Amanat International Airport,Chittagong,Chittagong,BD,22.249599,91.813301,12,Asia/Dhaka
CGQ,ZYCC,Longjia Airport,Changchun,Jilin,CN,43.996201,125.684998,706,Asia/Shanghai
CGR,SBCG,Campo Grande Airport,Campo Grande,Mato-Grosso-do-Sul,BR,-20.468700,-54.672501,1833,America/Campo_Grande
CGY,RPMY,Malaybalay Airport,Malaybalay City,Northern-Mindanao,PH,8.141660,125.116997,2051,Asia/Manila
CGY,RPML,Cagayan De Oro Airport,Cagayan De Oro City,Northern-Mindanao,PH,8.415620,124.611000,601,Asia/Manila
CHA,KCHA,Lovell Field,Chattanooga,Tennessee,US,35.035301,-85.203796,683,America/New_York
CHC,NZCH,Christchurch International Airport,Christchurch,Canterbury,NZ,-43.489399,172.531998,123,Pacific/Auckland
CHG,ZYCY,Chaoyang Airport,Chaoyang,Liaoning,CN,41.538101,120.434998,0,Asia/Shanghai
CHH,SPPY,Chachapoyas Airport,Chachapoyas,Amazonas,PE,-6.201810,-77.856102,8333,America/Lima
CHO,KCHO,Charlottesville Albemarle Airport,Charlottesville,Virginia,US,38.138599,-78.452904,639,America/New_York
CHQ,LGSA,Chania International Airport,Souda,Crete,GR,35.531700,24.149700,490,Europe/Athens
CHS,KCHS,Charleston Air Force Base-International Airport,Charleston,South-Carolina,US,32.898602,-80.040497,46,America/New_York
CHT,NZCI,Chatham Islands-Tuuta Airport,Waitangi,Chatham-Islands,NZ,-43.810001,-176.457001,43,Pacific/Chatham
CHU,PACH,Chuathbaluk Airport,Chuathbaluk,Alaska,US,61.579102,-159.216003,244,America/Anchorage
CHX,MPCH,Cap Manuel Nino International Airport,Changuinola,Bocas-del-Toro,PA,9.458640,-82.516800,19,America/Panama
CHY,AGGC,Choiseul Bay Airport,,Choiseul,SB,-6.711944,156.396111,0,Pacific/Guadalcanal
CIA,LIRA,Ciampino Airport,Roma,Latium,IT,41.799400,12.594900,427,Europe/Rome
CID,KCID,The Eastern Iowa Airport,Cedar Rapids,Iowa,US,41.884701,-91.710800,869,America/Chicago
CIF,ZBCF,Chifeng Airport,Chifeng,Inner-Mongolia,CN,42.235001,118.907997,0,Asia/Shanghai
CIH,ZBCZ,Changzhi Airport,Changzhi,Shanxi,CN,36.247501,113.125999,0,Asia/Shanghai
CIJ,SLCO,Capitan Anibal Arab Airport,Cobija,Pando,BO,-11.040400,-68.782997,889,America/La_Paz
CIK,PACI,Chalkyitsik Airport,Chalkyitsik,Alaska,US,66.644997,-143.740005,544,America/Anchorage
CIT,UAII,Shymkent Airport,Shymkent,Ongtuestik-Qazaqstan,KZ,42.364201,69.478897,1385,Asia/Almaty
CIU,KCIU,Chippewa County International Airport,Sault Ste Marie,Michigan,US,46.250801,-84.472397,800,America/Detroit
CIX,SPHI,Capitan FAP Jose A Quinones Gonzales International Airport,Chiclayo,Lambayeque,PE,-6.787480,-79.828102,97,America/Lima
CIY,LICB,Comiso Airport Vincenzo Magliocco,Comiso,Sicily,IT,36.994601,14.607182,623,Europe/Rome
CIZ,SWKO,Coari Airport,Coari,Amazonas,BR,-4.134060,-63.132599,131,America/Manaus
CJA,SPJR,Mayor General FAP Armando Revoredo Iglesias Airport,Cajamarca,Cajamarca,PE,-7.139180,-78.489403,8781,America/Lima
CJB,VOCB,Coimbatore International Airport,Coimbatore,Tamil-Nadu,IN,11.030000,77.043404,1324,Asia/Kolkata
CJC,SCCF,El Loa Airport,Calama,Antofagasta,CL,-22.498199,-68.903603,7543,America/Santiago
CJJ,RKTU,Cheongju International Airport,Cheongju,North-Chungcheong,KR,36.716599,127.499001,191,Asia/Seoul
CJM,VTSE,Chumphon Airport,,Chumphon,TH,10.711200,99.361702,18,Asia/Bangkok
CJS,MMCS,Abraham Gonzalez International Airport,Ciudad Juarez,Chihuahua,MX,31.636101,-106.429001,3904,America/Ojinaga
CJU,RKPC,Jeju International Airport,Jeju City,Jeju-do,KR,33.511299,126.492996,118,Asia/Seoul
CKB,KCKB,North Central West Virginia Airport,Clarksburg,West-Virginia,US,39.296600,-80.228104,1217,America/New_York
CKG,ZUCK,Chongqing Jiangbei International Airport,Chongqing,Chongqing,CN,29.719200,106.641998,1365,Asia/Shanghai
CKH,UESO,Chokurdakh Airport,Chokurdah,Chukot,RU,70.623100,147.901993,151,Asia/Srednekolymsk
CKO,SSCP,Cornelio Procopio Airport,Cornelio Procopio,Parana,BR,-23.152500,-50.602501,1854,America/Sao_Paulo
CKS,SBCJ,Carajas Airport,Carajas,Para,BR,-6.115278,-50.001389,2064,America/Belem
CKY,GUCY,Conakry Airport,Conakry,Conakry,GN,9.576890,-13.612000,72,Africa/Conakry
CKZ,LTBH,Canakkale Airport,Canakkale,Canakkale,TR,40.137699,26.426800,23,Europe/Istanbul
CLD,KCRQ,Mc Clellan-Palomar Airport,Carlsbad,California,US,33.128300,-117.279999,331,America/Los_Angeles
CLE,KCLE,Cleveland Hopkins International Airport,Cleveland,Ohio,US,41.411701,-81.849800,791,America/New_York
CLJ,LRCL,Cluj-Napoca International Airport,Cluj-Napoca,Cluj,RO,46.785198,23.686199,1036,Europe/Bucharest
CLL,KCLL,Easterwood Field,College Station,Texas,US,30.588600,-96.363800,320,America/Chicago
CLO,SKCL,Alfonso Bonilla Aragon International Airport,Cali,Valle-del-Cauca,CO,3.543220,-76.381600,3162,America/Bogota
CLP,PFCL,Clarks Point Airport,Clarks Point,Alaska,US,58.833698,-158.529007,80,America/Anchorage
CLQ,MMIA,Lic. Miguel de la Madrid Airport,Colima,Colima,MX,19.277000,-103.577003,2467,America/Mexico_City
CLT,KCLT,Charlotte Douglas International Airport,Charlotte,North-Carolina,US,35.214001,-80.943100,748,America/New_York
CLV,SBCN,Caldas Novas Airport,Caldas Novas,Goias,BR,-17.725300,-48.607498,2247,America/Sao_Paulo
CLY,LFKC,Calvi-Sainte-Catherine Airport,Calvi/Sainte-Catherine,Corsica,FR,42.530800,8.793190,209,Europe/Paris
CMA,YCMU,Cunnamulla Airport,,Queensland,AU,-28.030001,145.621994,630,Australia/Brisbane
CMB,VCBI,Bandaranaike International Colombo Airport,Colombo,Western,LK,7.180760,79.884102,30,Asia/Colombo
CME,MMCE,Ciudad del Carmen International Airport,Ciudad del Carmen,Campeche,MX,18.653700,-91.799004,10,America/Merida
CMF,LFLB,Chambery-Savoie Airport,Chambery/Aix-les-Bains,Auvergne-Rhone-Alpes,FR,45.638100,5.880230,779,Europe/Paris
CMG,SBCR,Corumba International Airport,Corumba,Mato-Grosso-do-Sul,BR,-19.011944,-57.671391,461,America/Campo_Grande
CMH,KCMH,Port Columbus International Airport,Columbus,Ohio,US,39.998001,-82.891899,815,America/New_York
CMI,KCMI,University of Illinois Willard Airport,Champaign/Urbana,Illinois,US,40.039200,-88.278099,755,America/Chicago
CMN,GMMN,Mohammed V International Airport,Casablanca,,MA,33.367500,-7.589970,656,Africa/Casablanca
CMW,MUCM,Ignacio Agramonte International Airport,Camaguey,Camagueey,CU,21.420300,-77.847504,413,America/Havana
CMX,KCMX,Houghton County Memorial Airport,Hancock,Michigan,US,47.168400,-88.489098,1095,America/Detroit
CNC,YCCT,Coconut Island Airport,,Queensland,AU,-10.050000,143.070007,3,Australia/Brisbane
CND,LRCK,Mihail Kogalniceanu International Airport,Constanta,Constanța,RO,44.362202,28.488300,353,Europe/Bucharest
CNF,SBCF,Tancredo Neves International Airport,Belo Horizonte,Minas-Gerais,BR,-19.624443,-43.971943,2715,America/Sao_Paulo
CNJ,YCCY,Cloncurry Airport,Cloncurry,Queensland,AU,-20.668600,140.503998,616,Australia/Brisbane
CNM,KCNM,Cavern City Air Terminal,Carlsbad,New-Mexico,US,32.337502,-104.263000,3295,America/Denver
CNN,UELL,Chulman Airport,Chulman,Chukot,RU,56.913898,124.914001,2812,Asia/Yakutsk
CNQ,SARC,Corrientes Airport,Corrientes,Corrientes,AR,-27.445500,-58.761900,202,America/Argentina/Cordoba
CNS,YBCS,Cairns International Airport,Cairns,Queensland,AU,-16.885799,145.755005,10,Australia/Brisbane
CNX,VTCC,Chiang Mai International Airport,Chiang Mai,Chiang-Mai,TH,18.766800,98.962601,1036,Asia/Bangkok
CNY,KCNY,Canyonlands Field,Moab,Utah,US,38.755001,-109.754997,4557,America/Denver
COD,KCOD,Yellowstone Regional Airport,Cody,Wyoming,US,44.520199,-109.024002,5102,America/Denver
COH,VECO,Cooch Behar Airport,,West-Bengal,IN,26.330500,89.467201,138,Asia/Kolkata
COK,VOCI,Cochin International Airport,Cochin,Kerala,IN,10.152000,76.401901,30,Asia/Kolkata
COO,DBBB,Cadjehoun Airport,Cotonou,Atlantique,BJ,6.357230,2.384350,19,Africa/Porto-Novo
COR,SACO,Ingeniero Ambrosio Taravella Airport,Cordoba,Cordoba,AR,-31.323601,-64.208000,1604,America/Argentina/Cordoba
COS,KCOS,City of Colorado Springs Municipal Airport,Colorado Springs,Colorado,US,38.805801,-104.700996,6187,America/Denver
COU,KCOU,Columbia Regional Airport,Columbia,Missouri,US,38.818100,-92.219597,889,America/Chicago
CPC,SAZY,Aviador C. Campos Airport,Chapelco/San Martin de los Andes,Neuquen,AR,-40.075401,-71.137299,2569,America/Argentina/Salta
CPD,YCBP,Coober Pedy Airport,,South-Australia,AU,-29.040001,134.720993,740,Australia/Adelaide
CPE,MMCP,Ingeniero Alberto Acuna Ongay International Airport,Campeche,Campeche,MX,19.816799,-90.500298,34,America/Merida
CPH,EKCH,Copenhagen Kastrup Airport,Copenhagen,Capital-Region,DK,55.617901,12.656000,17,Europe/Copenhagen
CPO,SCAT,Desierto de Atacama Airport,Copiapo,Atacama,CL,-27.261200,-70.779198,670,America/Santiago
CPR,KCPR,Casper-Natrona County International Airport,Casper,Wyoming,US,42.908001,-106.463997,5350,America/Denver
CPT,FACT,Cape Town International Airport,Cape Town,Western-Cape,ZA,-33.964802,18.601700,151,Africa/Johannesburg
CPV,SBKG,Presidente Joao Suassuna Airport,Campina Grande,Paraiba,BR,-7.269920,-35.896400,1646,America/Fortaleza
CPX,TJCP,Benjamin Rivera Noriega Airport,Culebra Island,Culebra,PR,18.313289,-65.304324,49,America/Puerto_Rico
CQD,OIFS,Shahrekord Airport,Shahrekord,Chaharmahal-and-Bakhtiari,IR,32.297199,50.842201,6723,Asia/Tehran
CRA,LRCV,Craiova Airport,Craiova,Dolj,RO,44.318100,23.888599,626,Europe/Bucharest
CRD,SAVC,General E. Mosconi Airport,Comodoro Rivadavia,Chubut,AR,-45.785300,-67.465500,189,America/Argentina/Catamarca
CRI,MYCI,Colonel Hill Airport,Colonel Hill,Crooked-Island-and-Long-Cay,BS,22.745600,-74.182404,5,America/Nassau
CRK,RPLC,Diosdado Macapagal International Airport,Angeles City,Central-Luzon,PH,15.186000,120.559998,484,Asia/Manila
CRL,EBCI,Brussels South Charleroi Airport,Brussels,Wallonia,BE,50.459202,4.453820,614,Europe/Brussels
CRM,RPVF,Catarman National Airport,Catarman,Eastern-Visayas,PH,12.502400,124.636002,6,Asia/Manila
CRP,KCRP,Corpus Christi International Airport,Corpus Christi,Texas,US,27.770399,-97.501198,44,America/Chicago
CRV,LIBC,Crotone Airport,Crotone,Calabria,IT,38.997200,17.080200,522,Europe/Rome
CRW,KCRW,Yeager Airport,Charleston,West-Virginia,US,38.373100,-81.593201,981,America/New_York
CRZ,UTAV,Turkmenabat Airport,Turkmenabat,,TM,39.083302,63.613300,630,Asia/Ashgabat
CSG,KCSG,Columbus Metropolitan Airport,Columbus,Georgia,US,32.516300,-84.938904,397,America/New_York
CSK,GOGS,Cap Skirring Airport,Cap Skirring,Ziguinchor,SN,12.410200,-16.746099,52,Africa/Dakar
CSU,SSSC,Santa Cruz do Sul Airport,Santa Cruz Do Sul,Rio-Grande-do-Sul,BR,-29.684099,-52.412201,646,America/Sao_Paulo
CSX,ZGHA,Changsha Huanghua Airport,Changsha,Hunan,CN,28.189199,113.220001,217,Asia/Shanghai
CSY,UWKS,Cheboksary Airport,Cheboksary,Chuvashia,RU,56.090302,47.347301,558,Europe/Moscow
CTA,LICC,Catania / Fontanarossa Airport,Catania,Sicily,IT,37.466801,15.066400,39,Europe/Rome
CTC,SANC,Catamarca Airport,Catamarca,Catamarca,AR,-28.595600,-65.751701,1522,America/Argentina/Catamarca
CTD,MPCE,Alonso Valderrama Airport,Chitre,Herrera,PA,7.987840,-80.409698,33,America/Panama
CTG,SKCG,Rafael Nunez International Airport,Cartagena,Bolivar,CO,10.442400,-75.513000,4,America/Bogota
CTL,YBCV,Charleville Airport,Charleville,Queensland,AU,-26.413300,146.261993,1003,Australia/Brisbane
CTM,MMCM,Chetumal International Airport,Chetumal,Quintana-Roo,MX,18.504700,-88.326797,39,America/Cancun
CTS,RJCC,New Chitose Airport,Chitose / Tomakomai,Hokkaido,JP,42.775200,141.692001,82,Asia/Tokyo
CTU,ZUUU,Chengdu Shuangliu International Airport,Chengdu,Sichuan,CN,30.578501,103.946999,1625,Asia/Shanghai
CUC,SKCC,Camilo Daza International Airport,Cucuta,Norte-de-Santander,CO,7.927570,-72.511500,1096,America/Bogota
CUE,SECU,Mariscal Lamar Airport,Cuenca,Azuay,EC,-2.889470,-78.984398,8306,America/Guayaquil
CUF,LIMZ,Cuneo / Levaldigi Airport,Cuneo,Piedmont,IT,44.547001,7.623220,1267,Europe/Rome
CUL,MMCL,Federal de Bachigualato International Airport,Culiacan,Sinaloa,MX,24.764500,-107.474998,108,America/Mazatlan
CUM,SVCU,Cumana (Antonio Jose de Sucre) Airport,,Sucre,VE,10.450333,-64.130470,14,America/Caracas
CUN,MMUN,Cancun International Airport,Cancun,Quintana-Roo,MX,21.036501,-86.877098,22,America/Cancun
CUR,TNCC,Hato International Airport,Willemstad,,CW,12.188900,-68.959801,29,America/Curacao
CUU,MMCU,General Roberto Fierro Villalobos International Airport,Chihuahua,Chihuahua,MX,28.702900,-105.964996,4462,America/Chihuahua
CUZ,SPZO,Alejandro Velasco Astete International Airport,Cusco,Cusco,PE,-13.535700,-71.938797,10860,America/Lima
CVG,KCVG,Cincinnati Northern Kentucky International Airport,Hebron,Kentucky,US,39.048801,-84.667801,896,America/New_York
CVM,MMCV,General Pedro Jose Mendez International Airport,Ciudad Victoria,Tamaulipas,MX,23.703300,-98.956497,761,America/Monterrey
CVN,KCVN,Clovis Municipal Airport,Clovis,New-Mexico,US,34.425098,-103.079002,4216,America/Denver
CVQ,YCAR,Carnarvon Airport,,Western-Australia,AU,-24.880600,113.671997,13,Australia/Perth
CVU,LPCR,Corvo Airport,Corvo,Azores,PT,39.671501,-31.113600,0,Atlantic/Azores
CWA,KCWA,Central Wisconsin Airport,Mosinee,Wisconsin,US,44.777599,-89.666801,1277,America/Chicago
CWB,SBCT,Afonso Pena Airport,Curitiba,Parana,BR,-25.528500,-49.175800,2988,America/Sao_Paulo
CWL,EGFF,Cardiff International Airport,Cardiff,Wales,GB,51.396702,-3.343330,220,Europe/London
CXB,VGCB,Cox's Bazar Airport,Cox's Bazar,Chittagong,BD,21.452200,91.963898,12,Asia/Dhaka
CXI,PLCH,Cassidy International Airport,Banana,Line-Islands,KI,1.986160,-157.350006,5,Pacific/Kiritimati
CXJ,SBCX,Campo dos Bugres Airport,Caxias Do Sul,Rio-Grande-do-Sul,BR,-29.197100,-51.187500,2472,America/Sao_Paulo
CXR,VVCR,Cam Ranh Airport,Nha Trang,Khanh-Hoa,VN,11.998200,109.219002,40,Asia/Ho_Chi_Minh
CXY,MYCC,Cat Cay Airport,Cat Cay,Bimini,BS,25.600000,-79.266998,0,America/Nassau
CYA,MTCA,Les Cayes Airport,Les Cayes,Sud,HT,18.271099,-73.788300,203,America/Port-au-Prince
CYB,MWCB,Gerrard Smith International Airport,Cayman Brac,,KY,19.687000,-79.882797,8,America/Cayman
CYF,PACK,Chefornak Airport,Chefornak,Alaska,US,60.149200,-164.285995,40,America/Nome
CYI,RCKU,Chiayi Airport,Chiayi City,Taiwan,TW,23.461800,120.392998,85,Asia/Taipei
CYO,MUCL,Vilo Acuna International Airport,Cayo Largo del Sur,Isla-de-la-Juventud,CU,21.616501,-81.545998,10,America/Havana
CYP,RPVC,Calbayog Airport,Calbayog City,Eastern-Visayas,PH,12.072700,124.544998,12,Asia/Manila
CYS,KCYS,Cheyenne Regional Jerry Olson Field,Cheyenne,Wyoming,US,41.155701,-104.811997,6159,America/Denver
CYX,UESS,Cherskiy Airport,Cherskiy,Chukot,RU,68.740601,161.337997,20,Asia/Srednekolymsk
CYZ,RPUY,Cauayan Airport,Cauayan City,Cagayan-Valley,PH,16.929899,121.752998,200,Asia/Manila
CZL,DABC,Mohamed Boudiaf International Airport,Constantine,Constantine,DZ,36.276001,6.620390,2265,Africa/Algiers
CZM,MMCZ,Cozumel International Airport,Cozumel,Quintana-Roo,MX,20.522400,-86.925598,15,America/Cancun
CZS,SBCZ,Cruzeiro do Sul Airport,Cruzeiro Do Sul,Acre,BR,-7.599910,-72.769501,637,America/Rio_Branco
CZU,SKCZ,Las Brujas Airport,Corozal,Sucre,CO,9.332740,-75.285600,528,America/Bogota
CZX,ZSCG,Changzhou Airport,Changzhou,Jiangsu,CN,31.919701,119.778999,0,Asia/Shanghai
DAB,KDAB,Daytona Beach International Airport,Daytona Beach,Florida,US,29.179899,-81.058098,34,America/New_York
DAC,VGHS,Dhaka / Hazrat Shahjalal International Airport,Dhaka,Dhaka,BD,23.843347,90.397783,30,Asia/Dhaka
DAD,VVDN,Da Nang International Airport,Da Nang,Da-Nẵng,VN,16.043900,108.198997,33,Asia/Ho_Chi_Minh
DAL,KDAL,Dallas Love Field,Dallas,Texas,US,32.847099,-96.851799,487,America/Chicago
DAM,OSDI,Damascus International Airport,Damascus,Rif-dimashq,SY,33.411499,36.515598,2020,Asia/Damascus
DAR,HTDA,Mwalimu Julius K. Nyerere International Airport,Dar es Salaam,Dar-es-Salaam,TZ,-6.878110,39.202599,182,Africa/Dar_es_Salaam
DAT,ZBDT,Datong Airport,Datong,Shanxi,CN,40.060299,113.482002,3442,Asia/Shanghai
DAU,AYDU,Daru Airport,Daru,Western Province,PG,-9.086760,143.207993,20,Pacific/Port_Moresby
DAV,MPDA,Enrique Malek International Airport,David,Chiriqui,PA,8.391000,-82.434998,89,America/Panama
DAY,KDAY,James M Cox Dayton International Airport,Dayton,Ohio,US,39.902401,-84.219398,1009,America/New_York
DBO,YSDU,Dubbo City Regional Airport,Dubbo,New-South-Wales,AU,-32.216702,148.574997,935,Australia/Sydney
DBQ,KDBQ,Dubuque Regional Airport,Dubuque,Iowa,US,42.402000,-90.709503,1077,America/Chicago
DBR,VEDH,Darbhanga Airport,Darbhanga,Bihar,IN,26.194722,85.917500,171,Asia/Kolkata
DBV,LDDU,Dubrovnik Airport,Dubrovnik,Dubrovacko-Neretvanska,HR,42.561401,18.268200,527,Europe/Zagreb
DCA,KDCA,Ronald Reagan Washington National Airport,Washington,Virginia,US,38.852100,-77.037697,15,America/New_York
DCM,LFCK,Castres-Mazamet Airport,Castres/Mazamet,Occitanie,FR,43.556301,2.289180,788,Europe/Paris
DDC,KDDC,Dodge City Regional Airport,Dodge City,Kansas,US,37.763401,-99.965599,2594,America/Chicago
DDG,ZYDD,Dandong Airport,Dandong,Liaoning,CN,40.024700,124.286003,0,Asia/Shanghai
DEB,LHDC,Debrecen International Airport,Debrecen,Hajdu-Bihar,HU,47.488899,21.615299,359,Europe/Budapest
DEC,KDEC,Decatur Airport,Decatur,Illinois,US,39.834599,-88.865700,682,America/Chicago
DED,VIDN,Dehradun Airport,Dehradun,Uttar-Pradesh,IN,30.189699,78.180298,1831,Asia/Kolkata
DEE,UHSM,Mendeleyevo Airport,Kunashir Island,Sakhalin,RU,43.958401,145.682999,584,Asia/Ust-Nera
DEL,VIDP,Indira Gandhi International Airport,New Delhi,NCT,IN,28.566500,77.103104,777,Asia/Kolkata
DEN,KDEN,Denver International Airport,Denver,Colorado,US,39.861698,-104.672997,5431,America/Denver
DFW,KDFW,Dallas Fort Worth International Airport,Dallas-Fort Worth,Texas,US,32.896801,-97.038002,607,America/Chicago
DGE,YMDG,Mudgee Airport,Mudgee,New-South-Wales,AU,-32.562500,149.610992,1545,Australia/Sydney
DGH,VEDO,Deoghar Airport,Deoghar,Jharkhand,IN,24.444722,86.702500,833,Asia/Kolkata
DGO,MMDO,General Guadalupe Victoria International Airport,Durango,Durango,MX,24.124201,-104.528000,6104,America/Monterrey
DGT,RPVD,Sibulan Airport,Dumaguete City,Central-Visayas,PH,9.333710,123.300003,15,Asia/Manila
DHI,VNDH,Dhangarhi Airport,Dhangarhi,Far-Western,NP,28.753300,80.581902,690,Asia/Kathmandu
DHM,VIGG,Kangra Airport,,Himachal-Pradesh,IN,32.165100,76.263397,2525,Asia/Kolkata
DHN,KDHN,Dothan Regional Airport,Dothan,Alabama,US,31.321301,-85.449600,401,America/Chicago
DIB,VEMN,Dibrugarh Airport,Dibrugarh,Assam,IN,27.483900,95.016899,362,Asia/Kolkata
DIE,FMNA,Arrachart Airport,,Diana,MG,-12.349400,49.291698,374,Indian/Antananarivo
DIG,ZPDQ,Diqing Airport,Shangri-La,Yunnan,CN,27.793600,99.677200,0,Asia/Shanghai
DIK,KDIK,Dickinson Theodore Roosevelt Regional Airport,Dickinson,North-Dakota,US,46.797401,-102.802002,2592,America/Denver
DIL,WPDL,Presidente Nicolau Lobato International Airport,Dili,Dili,TL,-8.546400,125.526001,154,Asia/Dili
DIN,VVDB,Dien Bien Phu Airport,Dien Bien Phu,Lai-Chau,VN,21.397499,103.008003,1611,Asia/Bangkok
DIR,HADR,Aba Tenna Dejazmach Yilma International Airport,Dire Dawa,Dire-Dawa,ET,9.624700,41.854198,3827,Africa/Addis_Ababa
DIU,VA1P,Diu Airport,Diu,Gujarat,IN,20.713100,70.921097,31,Asia/Kolkata
DIY,LTCC,Diyarbakir Airport,Diyarbakir,Diyarbakir,TR,37.893902,40.201000,2251,Europe/Istanbul
DJB,WIPA,Sultan Thaha Airport,Jambi-Sumatra Island,,ID,-1.638020,103.643997,82,Asia/Jakarta
DJE,DTTJ,Djerba Zarzis International Airport,Djerba,Madanin,TN,33.875000,10.775500,19,Africa/Tunis
DJG,DAAJ,Djanet Inedbirene Airport,Djanet,Illizi,DZ,24.292801,9.452440,3176,Africa/Algiers
DJJ,WAJJ,Sentani Airport,Jayapura-Papua Island,Papua,ID,-2.576950,140.516006,289,Asia/Jayapura
DKR,GOOY,Leopold Sedar Senghor International Airport,Dakar,Dakar,SN,14.739700,-17.490200,85,Africa/Dakar
DKS,UODD,Dikson Airport,Dikson,Krasnoyarskiy,RU,73.517807,80.379669,47,Asia/Krasnoyarsk
DLA,FKKD,Douala International Airport,Douala,Littoral,CM,4.006080,9.719480,33,Africa/Douala
DLC,ZYTL,Zhoushuizi Airport,Dalian,Liaoning,CN,38.965698,121.539001,107,Asia/Shanghai
DLE,LFGJ,Dole-Tavaux Airport,Dole/Tavaux,Bourgogne-Franche-Comte,FR,47.039001,5.427250,645,Europe/Paris
DLG,PADL,Dillingham Airport,Dillingham,Alaska,US,59.044701,-158.505005,81,America/Anchorage
DLH,KDLH,Duluth International Airport,Duluth,Minnesota,US,46.842098,-92.193604,1428,America/Chicago
DLI,VVDL,Lien Khuong Airport,Dalat,Lam-Dồng,VN,11.750000,108.366997,3156,Asia/Ho_Chi_Minh
DLM,LTBS,Dalaman International Airport,Dalaman,Mugla,TR,36.713100,28.792500,20,Europe/Istanbul
DLU,ZPDL,Dali Airport,Xiaguan,Yunnan,CN,25.649401,100.319000,0,Asia/Shanghai
DLY,NVVD,Dillon's Bay Airport,Dillon's Bay,Tafea,VU,-18.769400,169.001007,538,Pacific/Efate
DLZ,ZMDZ,Dalanzadgad Airport,Dalanzadgad,Oemnogovi,MN,43.591702,104.430000,4787,Asia/Ulaanbaatar
DMB,UADD,Taraz Airport,Taraz,Zhambyl,KZ,42.853600,71.303596,2184,Asia/Almaty
DMD,YDMG,Doomadgee Airport,,Queensland,AU,-17.940300,138.822006,153,Australia/Brisbane
DME,UUDD,Domodedovo International Airport,Moscow,Moscow-Oblast,RU,55.408798,37.906300,588,Europe/Moscow
DMK,VTBD,Don Mueang International Airport,Bangkok,Bangkok,TH,13.912600,100.607002,9,Asia/Bangkok
DMM,OEDF,King Fahd International Airport,Ad Dammam,Eastern-Province,SA,26.471201,49.797901,72,Asia/Riyadh
DMU,VEMR,Dimapur Airport,Dimapur,Nagaland,IN,25.883900,93.771103,487,Asia/Kolkata
DND,EGPN,Dundee Airport,Dundee,Scotland,GB,56.452499,-3.025830,17,Europe/London
DNH,ZLDH,Dunhuang Airport,Dunhuang,Gansu,CN,40.161098,94.809196,0,Asia/Shanghai
DNZ,LTAY,Cardak Airport,Denizli,Denizli,TR,37.785599,29.701300,2795,Europe/Istanbul
DOB,WAPD,Dobo Airport,Dobo-Kobror Island,Maluku,ID,-5.772220,134.212006,15,Asia/Jayapura
DOD,HTDO,Dodoma Airport,Dodoma,Dodoma,TZ,-6.170440,35.752602,3673,Africa/Dar_es_Salaam
DOH,OTHH,Hamad International Airport,Doha,Baladiyat-ad-Dawḩah,QA,25.260595,51.613766,13,Asia/Qatar
DOL,LFRG,Deauville-Saint-Gatien Airport,Deauville,Normandy,FR,49.365299,0.154306,479,Europe/Paris
DOM,TDPD,Melville Hall Airport,Marigot,Saint-Andrew,DM,15.547000,-61.299999,73,America/Dominica
DOY,ZSDY,Dongying Shengli Airport,Dongying,Shandong,CN,37.508598,118.788002,15,Asia/Shanghai
DPL,RPMG,Dipolog Airport,Dipolog City,Zamboanga-Peninsula,PH,8.601983,123.341875,12,Asia/Manila
DPO,YDPO,Devonport Airport,Devonport,Tasmania,AU,-41.169701,146.429993,33,Australia/Hobart
DPS,WADD,Ngurah Rai (Bali) International Airport,Denpasar-Bali Island,Bali,ID,-8.748170,115.167000,14,Asia/Makassar
DQA,ZYDQ,Saertu Airport,Daqing Shi,Heilongjiang,CN,46.746389,125.140556,496,Asia/Shanghai
DQM,OODQ,Duqm International Airport,Duqm,Duqm,OM,19.501900,57.634200,383,Asia/Muscat
DRB,YDBY,Derby Airport,,Western-Australia,AU,-17.370001,123.661003,24,Australia/Perth
DRG,PADE,Deering Airport,Deering,Alaska,US,66.069603,-162.766006,21,America/Nome
DRK,MRDK,Drake Bay Airport,Puntarenas,Puntarenas,CR,8.718890,-83.641701,12,America/Costa_Rica
DRO,KDRO,Durango La Plata County Airport,Durango,Colorado,US,37.151501,-107.753998,6685,America/Denver
DRS,EDDC,Dresden Airport,Dresden,Saxony,DE,51.132801,13.767200,755,Europe/Berlin
DRW,YPDN,Darwin International Airport,Darwin,Northern-Territory,AU,-12.414700,130.876999,103,Australia/Darwin
DSE,HADC,Combolcha Airport,Dessie,,ET,11.082500,39.711399,6117,Africa/Addis_Ababa
DSM,KDSM,Des Moines International Airport,Des Moines,Iowa,US,41.534000,-93.663101,958,America/Chicago
DSN,ZBDS,Ordos Ejin Horo Airport,Ordos,Inner-Mongolia,CN,39.490000,109.861389,4557,Asia/Shanghai
DSS,GOBD,Blaise Diagne International Airport,Diass,M'bour,SN,14.671111,-17.066944,289,Africa/Dakar
DTB,WIMN,Sisingamangaraja XII International Airport,Siborong-Borong,North-Sumatra,ID,2.259722,98.995278,4660,Asia/Jakarta
DTM,EDLW,Dortmund Airport,Dortmund,North-Rhine-Westphalia,DE,51.518299,7.612240,425,Europe/Berlin
DTW,KDTW,Detroit Metropolitan Wayne County Airport,Detroit,Michigan,US,42.212399,-83.353401,645,America/Detroit
DUB,EIDW,Dublin Airport,Dublin,Leinster,IE,53.421299,-6.270070,242,Europe/Dublin
DUD,NZDN,Dunedin Airport,Dunedin,Otago,NZ,-45.928101,170.197998,4,Pacific/Auckland
DUE,FNDU,Dundo Airport,Chitato,Luanda-Norte,AO,-7.400890,20.818501,2451,Africa/Luanda
DUJ,KDUJ,DuBois Regional Airport,Dubois,Pennsylvania,US,41.178299,-78.898697,1817,America/New_York
DUR,FALE,King Shaka International Airport,Durban,KwaZulu-Natal,ZA,-29.614444,31.119722,295,Africa/Johannesburg
DUS,EDDL,Dusseldorf International Airport,Dusseldorf,North-Rhine-Westphalia,DE,51.289501,6.766780,147,Europe/Berlin
DUT,PADU,Unalaska Airport,Unalaska,Alaska,US,53.900101,-166.544006,22,America/Nome
DVL,KDVL,Devils Lake Regional Airport,Devils Lake,North-Dakota,US,48.114201,-98.908798,1456,America/Chicago
DVO,RPMD,Francisco Bangoy International Airport,Davao City,Davao,PH,7.125520,125.646004,96,Asia/Manila
DWC,OMDW,Al Maktoum International Airport,Jebel Ali,Dubai,AE,24.896667,55.161389,114,Asia/Dubai
DWD,OEDW,Dawadmi Domestic Airport,Dawadmi,Ar-Riyaḑ,SA,24.500000,44.400002,3429,Asia/Riyadh
DXB,OMDB,Dubai International Airport,Dubai,Dubai,AE,25.252800,55.364399,34,Asia/Dubai
DYG,ZGDY,Dayong Airport,Dayong,Hunan,CN,29.102800,110.443001,692,Asia/Shanghai
DYR,UHMA,Ugolny Airport,Anadyr,Chukotka,RU,64.734901,177.740997,194,Asia/Anadyr
DYU,UTDD,Dushanbe Airport,Dushanbe,Dushanbe,TJ,38.543301,68.824997,2575,Asia/Dushanbe
DZA,FMCZ,Dzaoudzi Pamandzi International Airport,Dzaoudzi,Pamandzi,YT,-12.804700,45.281101,23,Indian/Mayotte
DZN,UAKD,Zhezkazgan Airport,Zhezkazgan,Qaraghandy,KZ,47.708302,67.733299,1250,Asia/Almaty
EAA,PAEG,Eagle Airport,Eagle,Alaska,US,64.776398,-141.151001,908,America/Anchorage
EAE,NVSE,Sangafa Airport,Sangafa,,VU,-17.090300,168.343002,7,Pacific/Efate
EAM,OENG,Nejran Airport,,,SA,17.611401,44.419201,3982,Asia/Riyadh
EAR,KEAR,Kearney Regional Airport,Kearney,Nebraska,US,40.727001,-99.006798,2131,America/Chicago
EAS,LESO,San Sebastian Airport,Hondarribia,Basque-Country,ES,43.356499,-1.790610,16,Europe/Madrid
EAT,KEAT,Pangborn Memorial Airport,Wenatchee,Washington,US,47.398899,-120.207001,1249,America/Los_Angeles
EAU,KEAU,Chippewa Valley Regional Airport,Eau Claire,Wisconsin,US,44.865799,-91.484299,913,America/Chicago
EBB,HUEN,Entebbe International Airport,Kampala,Central-Region,UG,0.042386,32.443501,3782,Africa/Kampala
EBH,DAOY,El Bayadh Airport,El Bayadh,El-Bayadh,DZ,33.721667,1.092500,4493,Africa/Algiers
EBJ,EKEB,Esbjerg Airport,Esbjerg,South-Denmark,DK,55.525902,8.553400,97,Europe/Copenhagen
EBL,ORER,Erbil International Airport,Arbil,Arbil,IQ,36.237598,43.963200,1341,Asia/Baghdad
ECN,LCEN,Ercan International Airport,Nicosia,Nicosia,CY,35.154701,33.496101,404,Asia/Famagusta
ECP,KECP,Northwest Florida Beaches International Airport,Panama City Beach,Florida,US,30.341700,-85.797300,69,America/Chicago
EDI,EGPH,Edinburgh Airport,Edinburgh,Scotland,GB,55.950001,-3.372500,135,Europe/London
EDL,HKEL,Eldoret International Airport,Eldoret,Uasin-Gishu,KE,0.404458,35.238899,6941,Africa/Nairobi
EDO,LTFD,Balikesir Korfez Airport,Edremit,Balikesir,TR,39.554600,27.013800,50,Europe/Istanbul
EDR,YPMP,Pormpuraaw Airport,,Queensland,AU,-14.896700,141.608994,10,Australia/Brisbane
EEK,PAEE,Eek Airport,Eek,Alaska,US,60.213673,-162.043884,12,America/Nome
EFL,LGKF,Kefallinia Airport,Kefallinia Island,Ionian-Islands,GR,38.120098,20.500500,59,Europe/Athens
EGC,LFBE,Bergerac-Roumaniere Airport,Bergerac/Roumaniere,Nouvelle-Aquitaine,FR,44.825298,0.518611,171,Europe/Paris
EGE,KEGE,Eagle County Regional Airport,Eagle,Colorado,US,39.642601,-106.917999,6548,America/Denver
EGM,AGGS,Sege Airport,Sege,,SB,-8.578890,157.876007,0,Pacific/Guadalcanal
EGS,BIEG,Egilsstadir Airport,Egilsstadir,East,IS,65.283302,-14.401400,76,Atlantic/Reykjavik
EGX,PAII,Egegik Airport,Egegik,Alaska,US,58.185501,-157.375000,92,America/Anchorage
EIN,EHEH,Eindhoven Airport,Eindhoven,North-Brabant,NL,51.450100,5.374530,74,Europe/Amsterdam
EIS,TUPJ,Terrance B. Lettsome International Airport,Road Town,,VG,18.444799,-64.542999,15,America/Tortola
EJA,SKEJ,Yariguies Airport,Barrancabermeja,Santander,CO,7.024330,-73.806800,412,America/Bogota
EKO,KEKO,Elko Regional Airport,Elko,Nevada,US,40.824902,-115.792000,5140,America/Los_Angeles
ELC,YELD,Elcho Island Airport,Elcho Island,Northern-Territory,AU,-12.019400,135.570999,101,Australia/Darwin
ELD,KELD,South Arkansas Regional At Goodwin Field,El Dorado,Arkansas,US,33.221001,-92.813301,277,America/Chicago
ELG,DAUE,El Golea Airport,,Ghardaia,DZ,30.571301,2.859590,1306,Africa/Algiers
ELH,MYEH,North Eleuthera Airport,North Eleuthera,North-Eleuthera,BS,25.474899,-76.683502,13,America/Nassau
ELI,PFEL,Elim Airport,Elim,Alaska,US,64.614700,-162.272003,162,America/Nome
ELM,KELM,Elmira Corning Regional Airport,Elmira/Corning,New-York,US,42.159901,-76.891602,954,America/New_York
ELP,KELP,El Paso International Airport,El Paso,Texas,US,31.807199,-106.377998,3959,America/Denver
ELQ,OEGS,Gassim Airport,,,SA,26.302799,43.774399,2126,Asia/Riyadh
ELS,FAEL,Ben Schoeman Airport,East London,Eastern-Cape,ZA,-33.035599,27.825899,435,Africa/Johannesburg
ELU,DAUO,Guemar Airport,Guemar,El-Oued,DZ,33.511398,6.776790,203,Africa/Algiers
EMA,EGNX,East Midlands Airport,Nottingham,England,GB,52.831100,-1.328060,306,Europe/London
EMD,YEML,Emerald Airport,Emerald,Queensland,AU,-23.567499,148.179001,624,Australia/Brisbane
EMK,PAEM,Emmonak Airport,Emmonak,Alaska,US,62.786098,-164.490997,13,America/Nome
EMN,GQNI,Nema Airport,Nema,Hodh-ech-Chargui,MR,16.622000,-7.316600,751,Africa/Nouakchott
ENA,PAEN,Kenai Municipal Airport,Kenai,Alaska,US,60.573101,-151.244995,99,America/Anchorage
ENE,WATE,Ende (H Hasan Aroeboesman) Airport,Ende-Flores Island,East-Nusa-Tenggara,ID,-8.849290,121.661003,49,Asia/Makassar
ENH,ZHES,Enshi Airport,Enshi,Hubei,CN,30.320299,109.485001,1605,Asia/Shanghai
ENI,RPXX,El Nido Airport,El Nido,Palawan,PH,11.202500,119.416000,17,Asia/Manila
ENU,DNEN,Akanu Ibiam International Airport,Enegu,Enugu,NG,6.474270,7.561960,466,Africa/Lagos
ENY,ZLYA,Yan'an Airport,Yan'an,Shaanxi,CN,36.636902,109.554001,0,Asia/Shanghai
EOH,SKMD,Enrique Olaya Herrera Airport,Medellin,Antioquia,CO,6.220549,-75.590582,4949,America/Bogota
EPR,YESP,Esperance Airport,,Western-Australia,AU,-33.684399,121.822998,470,Australia/Perth
EQS,SAVE,Brigadier Antonio Parodi Airport,Esquel,Chubut,AR,-42.908001,-71.139503,2621,America/Argentina/Catamarca
ERC,LTCD,Erzincan Airport,Erzincan,Erzincan,TR,39.710201,39.527000,3783,Europe/Istanbul
ERF,EDDE,Erfurt Airport,Erfurt,Thuringia,DE,50.979801,10.958100,1036,Europe/Berlin
ERG,UIKE,Yerbogachen Airport,Erbogachen,Irkutsk,RU,61.275002,108.029999,400,Asia/Irkutsk
ERH,GMFK,Moulay Ali Cherif Airport,Errachidia,,MA,31.947500,-4.398330,3428,Africa/Casablanca
ERI,KERI,Erie International Tom Ridge Field,Erie,Pennsylvania,US,42.083127,-80.173867,732,America/New_York
ERL,ZBER,Erenhot Saiwusu International Airport,Erenhot,Inner-Mongolia,CN,43.422500,112.096667,3301,Asia/Shanghai
ERN,SWEI,Eirunepe Airport,Eirunepe,Amazonas,BR,-6.639530,-69.879799,412,America/Eirunepe
ERS,FYWE,Eros Airport,Windhoek,Khomas,NA,-22.612200,17.080400,5575,Africa/Windhoek
ERZ,LTCE,Erzurum International Airport,Erzurum,Erzurum,TR,39.956501,41.170200,5763,Europe/Istanbul
ESB,LTAC,Esenboga International Airport,Ankara,Ankara,TR,40.128101,32.995098,3125,Europe/Istanbul
ESC,KESC,Delta County Airport,Escanaba,Michigan,US,45.722698,-87.093697,609,America/Detroit
ESD,KORS,Orcas Island Airport,Eastsound,Washington,US,48.708199,-122.910004,31,America/Los_Angeles
ESU,GMMI,Mogador Airport,Essaouira,,MA,31.397499,-9.681670,384,Africa/Casablanca
ETM,LLER,Ramon Airport,Eilat,Southern-District,IL,29.723694,35.011417,288,Asia/Jerusalem
ETR,SERO,Coronel Artilleria Victor Larrea Airport,Santa Rosa,El-Oro,EC,-3.435160,-79.977798,170,America/Guayaquil
ETZ,LFJL,Metz-Nancy-Lorraine Airport,Metz / Nancy,Grand-Est,FR,48.982101,6.251320,870,Europe/Paris
EUA,NFTE,Kaufana Airport,Eua Island,ʻEua,TO,-21.378300,-174.957993,325,Pacific/Tongatapu
EUG,KEUG,Mahlon Sweet Field,Eugene,Oregon,US,44.124599,-123.211998,374,America/Los_Angeles
EUN,GMML,Hassan I Airport,El Aaiun,Laayoune-Sakia-El-Hamra,EH,27.151699,-13.219200,207,Africa/El_Aaiun
EUQ,RPVS,Evelio Javier Airport,San Jose,Western-Visayas,PH,10.766000,121.932999,23,Asia/Manila
EUX,TNCE,F. D. Roosevelt Airport,Sint Eustatius,Sint-Eustatius,BQ,17.496500,-62.979401,129,America/Kralendijk
EVE,ENEV,Harstad/Narvik Airport Evenes,Evenes,Nordland,NO,68.491302,16.678101,84,Europe/Oslo
EVG,ESND,Sveg Airport,,Jaemtland,SE,62.047798,14.422900,1178,Europe/Stockholm
EVN,UDYZ,Zvartnots International Airport,Yerevan,,AM,40.147301,44.395901,2838,Asia/Yerevan
EVV,KEVV,Evansville Regional Airport,Evansville,Indiana,US,38.036999,-87.532402,418,America/Chicago
EWB,KEWB,New Bedford Regional Airport,New Bedford,Massachusetts,US,41.676102,-70.956902,80,America/New_York
EWN,KEWN,Coastal Carolina Regional Airport,New Bern,North-Carolina,US,35.073002,-77.042900,18,America/New_York
EWR,KEWR,Newark Liberty International Airport,Newark,New-Jersey,US,40.692501,-74.168701,18,America/New_York
EXT,EGTE,Exeter International Airport,Exeter,England,GB,50.734402,-3.413890,102,Europe/London
EYP,SKYP,El Yopal Airport,El Yopal,Casanare,CO,5.319110,-72.384000,1028,America/Bogota
EYW,KEYW,Key West International Airport,Key West,Florida,US,24.556101,-81.759598,3,America/New_York
EZE,SAEZ,Ministro Pistarini International Airport,Ezeiza,Buenos-Aires,AR,-34.822200,-58.535800,67,America/Argentina/Buenos_Aires
EZS,LTCA,Elazig Airport,Elazig,Elazig,TR,38.606899,39.291401,2927,Europe/Istanbul
EZV,USHB,Berezovo Airport,,Khanty-Mansia,RU,63.921001,65.030502,98,Asia/Yekaterinburg
FAC,NTKF,Faaite Airport,,Iles-Tuamotu-Gambier,PF,-16.686701,-145.328995,7,Pacific/Tahiti
FAE,EKVG,Vagar Airport,Vagar,Vagar,FO,62.063599,-7.277220,280,Atlantic/Faroe
FAI,PAFA,Fairbanks International Airport,Fairbanks,Alaska,US,64.815102,-147.856003,439,America/Anchorage
FAO,LPFR,Faro Airport,Faro,Faro,PT,37.014400,-7.965910,24,Europe/Lisbon
FAR,KFAR,Hector International Airport,Fargo,North-Dakota,US,46.920700,-96.815804,902,America/Chicago
FAT,KFAT,Fresno Yosemite International Airport,Fresno,California,US,36.776199,-119.718002,336,America/Los_Angeles
FAV,NTGF,Fakarava Airport,,Iles-Tuamotu-Gambier,PF,-16.054100,-145.656998,13,Pacific/Tahiti
FAY,KFAY,Fayetteville Regional Grannis Field,Fayetteville,North-Carolina,US,34.991199,-78.880302,189,America/New_York
FBE,SSFB,Francisco Beltrao Airport,Francisco Beltrao,Parana,BR,-26.059200,-53.063499,2100,America/Sao_Paulo
FBM,FZQA,Lubumbashi International Airport,Lubumbashi,,CD,-11.591300,27.530899,4295,Africa/Lubumbashi
FCA,KGPI,Glacier Park International Airport,Kalispell,Montana,US,48.310501,-114.255997,2977,America/Denver
FCO,LIRF,Leonardo Da Vinci (Fiumicino) International Airport,Rome,Latium,IT,41.804501,12.250800,15,Europe/Rome
FDE,ENBL,Bringeland Airport,Forde,Sogn-og-Fjordane,NO,61.391102,5.756940,1046,Europe/Oslo
FDF,TFFF,Martinique Aime Cesaire International Airport,Fort-de-France,Martinique,MQ,14.591000,-61.003201,16,America/Martinique
FDH,EDNY,Friedrichshafen Airport,Friedrichshafen,Baden-Wuerttemberg,DE,47.671299,9.511490,1367,Europe/Berlin
FEC,SNJD,Joao Durval Carneiro Airport,Feira De Santana,Bahia,BR,-12.200300,-38.906799,768,America/Bahia
FEG,UTKF,Fergana Airport,Fergana,Fergana,UZ,40.358799,71.745003,1980,Asia/Tashkent
FEN,SBFN,Fernando de Noronha Airport,Fernando De Noronha,Pernambuco,BR,-3.854930,-32.423302,193,America/Noronha
FEZ,GMFF,Saiss Airport,Fes,Fes-Meknes,MA,33.927299,-4.977960,1900,Africa/Casablanca
FGU,NTGB,Fangatau Airport,,Iles-Tuamotu-Gambier,PF,-15.819900,-140.886993,9,Pacific/Tahiti
FHZ,NTKH,Fakahina Airport,Fakahina,,PF,-15.992200,-140.164993,3,Pacific/Tahiti
FIH,FZAA,Ndjili International Airport,Kinshasa,,CD,-4.385750,15.444600,1027,Africa/Kinshasa
FIZ,YFTZ,Fitzroy Crossing Airport,,Western-Australia,AU,-18.181900,125.558998,368,Australia/Perth
FJR,OMFJ,Fujairah International Airport,,Al-Fujayrah,AE,25.112200,56.324001,152,Asia/Dubai
FKB,EDSB,Karlsruhe Baden-Baden Airport,Baden-Baden,Baden-Wuerttemberg,DE,48.779400,8.080500,408,Europe/Berlin
FKI,FZIC,Bangoka International Airport,Kisangani,Tshopo,CD,0.481639,25.337999,1417,Africa/Lubumbashi
FKQ,WASF,Fakfak Airport,Fakfak-Papua Island,,ID,-2.920190,132.266998,462,Asia/Jayapura
FKS,RJSF,Fukushima Airport,Sukagawa,Fukushima,JP,37.227402,140.431000,1221,Asia/Tokyo
FLA,SKFL,Gustavo Artunduaga Paredes Airport,Florencia,Caqueta,CO,1.589190,-75.564400,803,America/Bogota
FLG,KFLG,Flagstaff Pulliam Airport,Flagstaff,Arizona,US,35.138500,-111.670998,7014,America/Phoenix
FLL,KFLL,Fort Lauderdale Hollywood International Airport,Fort Lauderdale,Florida,US,26.072599,-80.152702,9,America/New_York
FLN,SBFL,Hercilio Luz International Airport,Florianopolis,Santa-Catarina,BR,-27.670279,-48.552502,16,America/Sao_Paulo
FLO,KFLO,Florence Regional Airport,Florence,South-Carolina,US,34.185398,-79.723900,146,America/New_York
FLR,LIRQ,Firenze / Peretola Airport,Firenze,Tuscany,IT,43.810001,11.205100,142,Europe/Rome
FLS,YFLI,Flinders Island Airport,,Tasmania,AU,-40.091702,147.992996,10,Australia/Hobart
FLW,LPFL,Flores Airport,Santa Cruz das Flores,Azores,PT,39.455299,-31.131399,112,Atlantic/Azores
FLZ,WIMS,Dr Ferdinand Lumban Tobing Airport,Sibolga-Sumatra Island,North-Sumatra,ID,1.555940,98.888901,43,Asia/Jakarta
FMA,SARF,Formosa Airport,Formosa,Formosa,AR,-26.212700,-58.228100,193,America/Argentina/Cordoba
FMI,FZRF,Kalemie Airport,,Tanganika,CD,-5.875560,29.250000,2569,Africa/Lubumbashi
FMM,EDJA,Memmingen Allgau Airport,Memmingen,Bavaria,DE,47.988800,10.239500,2077,Europe/Berlin
FMO,EDDG,Munster Osnabruck Airport,Munster,North-Rhine-Westphalia,DE,52.134602,7.684830,160,Europe/Berlin
FNA,GFLL,Lungi International Airport,Freetown,Northern-Province,SL,8.616440,-13.195500,84,Africa/Freetown
FNC,LPMA,Madeira Airport,Funchal,Madeira,PT,32.697899,-16.774500,192,Atlantic/Madeira
FNI,LFTW,Nimes-Arles-Camargue Airport,Nimes/Garons,Occitanie,FR,43.757401,4.416350,309,Europe/Paris
FNT,KFNT,Bishop International Airport,Flint,Michigan,US,42.965401,-83.743599,782,America/Detroit
FOC,ZSFZ,Fuzhou Changle International Airport,Fuzhou,Fujian,CN,25.935101,119.663002,46,Asia/Shanghai
FOD,KFOD,Fort Dodge Regional Airport,Fort Dodge,Iowa,US,42.551498,-94.192596,1156,America/Chicago
FOG,LIBF,Foggia / Gino Lisa Airport,Foggia,Apulia,IT,41.432899,15.535000,265,Europe/Rome
FON,MRAN,Arenal Airport,La Fortuna/San Carlos,Alajuela,CR,10.478000,-84.634499,342,America/Costa_Rica
FOR,SBFZ,Pinto Martins International Airport,Fortaleza,Ceara,BR,-3.776280,-38.532600,82,America/Fortaleza
FPO,MYGF,Grand Bahama International Airport,Freeport,Freeport,BS,26.558701,-78.695602,7,America/Nassau
FRA,EDDF,Frankfurt am Main International Airport,Frankfurt-am-Main,Hesse,DE,50.026402,8.543130,364,Europe/Berlin
FRD,KFHR,Friday Harbor Airport,Friday Harbor,Washington,US,48.521999,-123.024002,113,America/Los_Angeles
FRE,AGGF,Fera/Maringe Airport,Fera Island,Isabel,SB,-8.107500,159.576996,0,Pacific/Guadalcanal
FRL,LIPK,Forli Airport,Forli,Emilia-Romagna,IT,44.194801,12.070100,97,Europe/Rome
FRO,ENFL,Floro Airport,Floro,Sogn-og-Fjordane,NO,61.583599,5.024720,37,Europe/Oslo
FRS,MGTK,Mundo Maya International Airport,San Benito,Peten,GT,16.913799,-89.866402,427,America/Guatemala
FRU,UCFM,Manas International Airport,Bishkek,Chuey,KG,43.061272,74.477508,2090,Asia/Bishkek
FRW,FBFT,Francistown Airport,Francistown,North-East,BW,-21.159599,27.474501,3283,Africa/Gaborone
FSC,LFKF,Figari Sud-Corse Airport,Figari Sud-Corse,Corsica,FR,41.500599,9.097780,87,Europe/Paris
FSD,KFSD,Joe Foss Field Airport,Sioux Falls,South-Dakota,US,43.582001,-96.741898,1429,America/Chicago
FSM,KFSM,Fort Smith Regional Airport,Fort Smith,Arkansas,US,35.336601,-94.367401,469,America/Chicago
FSZ,RJNS,Mt. Fuji Shizuoka Airport,,Shizuoka,JP,34.796043,138.187752,433,Asia/Tokyo
FTA,NVVF,Futuna Airport,Futuna Island,Tafea,VU,-19.516399,170.231995,95,Pacific/Efate
FTE,SAWC,El Calafate Airport,El Calafate,Santa-Cruz,AR,-50.280300,-72.053101,669,America/Argentina/Rio_Gallegos
FTU,FMSD,Tolanaro Airport,Tolanaro,,MG,-25.038099,46.956100,29,Indian/Antananarivo
FUE,GCFV,Fuerteventura Airport,Fuerteventura Island,Canary-Islands,ES,28.452700,-13.863800,85,Atlantic/Canary
FUG,ZSFY,Fuyang Xiguan Airport,Fuyang,Anhui,CN,32.882157,115.734364,104,Asia/Shanghai
FUJ,RJFE,Fukue Airport,Goto,Nagasaki,JP,32.666302,128.832993,273,Asia/Tokyo
FUK,RJFF,Fukuoka Airport,Fukuoka,Fukuoka,JP,33.585899,130.451004,32,Asia/Tokyo
FUN,NGFU,Funafuti International Airport,Funafuti,Funafuti,TV,-8.525000,179.195999,0,Pacific/Funafuti
FUO,ZGFS,Foshan Shadi Airport,Foshan,Guangdong,CN,23.083300,113.070000,6,Asia/Shanghai
FVM,VRMF,Fuvahmulah Airport,Fuvahmulah Island,Gnyaviyani-Atoll,MV,-0.309722,73.435000,17,Indian/Maldives
FWA,KFWA,Fort Wayne International Airport,Fort Wayne,Indiana,US,40.978500,-85.195099,814,America/Indiana/Indianapolis
FYU,PFYU,Fort Yukon Airport,Fort Yukon,Alaska,US,66.571503,-145.250000,433,America/Anchorage
GAE,DTTG,Gabes Matmata International Airport,Gabes,Qabis,TN,33.876900,10.103300,26,Africa/Tunis
GAJ,RJSC,Yamagata Airport,Yamagata,Yamagata,JP,38.411900,140.371002,353,Asia/Tokyo
GAL,PAGA,Edward G. Pitka Sr Airport,Galena,Alaska,US,64.736198,-156.936996,153,America/Anchorage
GAM,PAGM,Gambell Airport,Gambell,Alaska,US,63.766800,-171.733002,27,America/Nome
GAN,VRMG,Gan International Airport,Gan,Seenu,MV,-0.693342,73.155602,6,Indian/Maldives
GAU,VEGT,Lokpriya Gopinath Bordoloi International Airport,Guwahati,Assam,IN,26.106100,91.585899,162,Asia/Kolkata
GAY,VEGY,Gaya Airport,,Bihar,IN,24.744301,84.951202,380,Asia/Kolkata
GBE,FBSK,Sir Seretse Khama International Airport,Gaborone,South-East,BW,-24.555201,25.918200,3299,Africa/Gaborone
GBI,MYGM,Auxiliary Airfield,Grand Bahama,East-Grand-Bahama,BS,26.631901,-78.359200,8,America/Nassau
GBT,OING,Gorgan Airport,Gorgan,Mazandaran,IR,36.909401,54.401299,-24,Asia/Tehran
GCC,KGCC,Gillette Campbell County Airport,Gillette,Wyoming,US,44.348900,-105.539001,4365,America/Denver
GCI,EGJB,Guernsey Airport,Saint Peter Port,Forest,GG,49.435001,-2.601970,336,Europe/Guernsey
GCK,KGCK,Garden City Regional Airport,Garden City,Kansas,US,37.927502,-100.723999,2891,America/Chicago
GCM,MWCR,Owen Roberts International Airport,Georgetown,,KY,19.292801,-81.357697,8,America/Cayman
GCN,KGCN,Grand Canyon National Park Airport,Grand Canyon,Arizona,US,35.952400,-112.147003,6609,America/Phoenix
GCW,K1G4,Grand Canyon West Airport,Peach Springs,Arizona,US,35.990398,-113.816002,4825,America/Phoenix
GDE,HAGO,Gode Airport,Gode,Somali,ET,5.935130,43.578602,834,Africa/Addis_Ababa
GDL,MMGL,Don Miguel Hidalgo Y Costilla International Airport,Guadalajara,Jalisco,MX,20.521799,-103.310997,5016,America/Mexico_City
GDN,EPGD,Gdansk Lech Walesa Airport,Gdansk,Pomerania,PL,54.377602,18.466200,489,Europe/Warsaw
GDQ,HAGN,Gonder Airport,Gondar,Amhara,ET,12.519900,37.433998,6449,Africa/Addis_Ababa
GDT,MBGT,JAGS McCartney International Airport,Cockburn Town,,TC,21.444500,-71.142303,13,America/Grand_Turk
GDV,KGDV,Dawson Community Airport,Glendive,Montana,US,47.138699,-104.806999,2458,America/Denver
GDX,UHMM,Sokol Airport,Magadan,Magadan,RU,59.910999,150.720001,574,Asia/Magadan
GEA,NWWM,Noumea Magenta Airport,Noumea,South-Province,NC,-22.258301,166.473007,10,Pacific/Noumea
GEG,KGEG,Spokane International Airport,Spokane,Washington,US,47.619900,-117.533997,2376,America/Los_Angeles
GEL,SBNM,Santo Angelo Airport,Santo Angelo,Rio-Grande-do-Sul,BR,-28.281700,-54.169102,1056,America/Sao_Paulo
GEO,SYCJ,Cheddi Jagan International Airport,Georgetown,Demerara-Mahaica,GY,6.498550,-58.254101,95,America/Guyana
GES,RPMB,General Santos International Airport,General Santos City,Soccsksargen,PH,6.106440,125.235001,28,Asia/Manila
GES,RPMR,Tambler Airport,,Soccsksargen,PH,6.058000,125.096001,505,Asia/Manila
GET,YGEL,Geraldton Airport,,Western-Australia,AU,-28.796101,114.707001,121,Australia/Perth
GEV,ESNG,Gallivare Airport,Gallivare,Norrbotten,SE,67.132401,20.814600,1027,Europe/Stockholm
GFF,YGTH,Griffith Airport,Griffith,New-South-Wales,AU,-34.250801,146.067001,439,Australia/Sydney
GFK,KGFK,Grand Forks International Airport,Grand Forks,North-Dakota,US,47.949299,-97.176102,845,America/Chicago
GGF,SNYA,Almeirim Airport,Almeirim,Para,BR,-1.491944,-52.578335,584,America/Santarem
GGG,KGGG,East Texas Regional Airport,Longview,Texas,US,32.383999,-94.711502,365,America/Chicago
GGM,HKKG,Kakamega Airport,Kakamega,Kakamega,KE,0.271342,34.787300,5020,Africa/Nairobi
GGT,MYEF,Exuma International Airport,George Town,Exuma,BS,23.562599,-75.877998,9,America/Nassau
GGW,KGGW,Wokal Field Glasgow International Airport,Glasgow,Montana,US,48.212502,-106.614998,2296,America/Denver
GHA,DAUG,Noumerat - Moufdi Zakaria Airport,Ghardaia,Ghardaia,DZ,32.384102,3.794110,1512,Africa/Algiers
GHB,MYEM,Governor's Harbour Airport,Governor's Harbour,North-Eleuthera,BS,25.284700,-76.331001,26,America/Nassau
GHC,MYBG,Great Harbour Cay Airport,,Berry-Islands,BS,25.738300,-77.840103,18,America/Nassau
GHT,HLGT,Ghat Airport,Ghat,Sha‘biyat-Ghat,LY,25.145599,10.142600,2296,Africa/Tripoli
GIB,LXGB,Gibraltar Airport,Gibraltar,,GI,36.151199,-5.349660,15,Europe/Gibraltar
GIC,YBOI,Boigu Airport,,Queensland,AU,-9.232780,142.218002,23,Australia/Brisbane
GIG,SBGL,Galeao - Antonio Carlos Jobim International Airport,Rio De Janeiro,Rio-de-Janeiro,BR,-22.809999,-43.250557,28,America/Sao_Paulo
GIL,OPGT,Gilgit Airport,Gilgit,Gilgit-Baltistan,PK,35.918800,74.333603,4796,Asia/Karachi
GIS,NZGS,Gisborne Airport,Gisborne,Gisborne,NZ,-38.663300,177.977997,15,Pacific/Auckland
GIU,VCCS,Sigiriya Air Force Base,Sigiriya,Central,LK,7.956670,80.728500,630,Asia/Colombo
GIZ,OEGN,Jizan Regional Airport,Jizan,Jizan,SA,16.901100,42.585800,20,Asia/Riyadh
GJA,MHNJ,La Laguna Airport,Guanaja,Bay-Islands,HN,16.445400,-85.906601,49,America/Tegucigalpa
GJL,DAAV,Jijel Ferhat Abbas Airport,Jijel,Jijel,DZ,36.795101,5.873610,36,Africa/Algiers
GJT,KGJT,Grand Junction Regional Airport,Grand Junction,Colorado,US,39.122398,-108.527000,4858,America/Denver
GKA,AYGA,Goroka Airport,Goronka,Eastern Highlands,PG,-6.081690,145.391998,5282,Pacific/Port_Moresby
GLA,EGPF,Glasgow International Airport,Glasgow,Scotland,GB,55.871899,-4.433060,26,Europe/London
GLF,MRGF,Golfito Airport,Golfito,Puntarenas,CR,8.654010,-83.182198,49,America/Costa_Rica
GLH,KGLH,Mid Delta Regional Airport,Greenville,Mississippi,US,33.482899,-90.985603,131,America/Chicago
GLT,YGLA,Gladstone Airport,Gladstone,Queensland,AU,-23.869699,151.223007,64,Australia/Brisbane
GLV,PAGL,Golovin Airport,Golovin,Alaska,US,64.550499,-163.007004,59,America/Nome
GMA,FZFK,Gemena Airport,Gemena,Sud-Ubangi,CD,3.235370,19.771299,1378,Africa/Kinshasa
GMB,HAGM,Gambella Airport,Gambela,,ET,8.128760,34.563099,1614,Africa/Addis_Ababa
GMO,DNGO,Gombe Lawanti International Airport,Gombe,Bauchi,NG,10.298333,10.896389,1590,Africa/Lagos
GMP,RKSS,Gimpo International Airport,Seoul,Seoul,KR,37.558300,126.791000,58,Asia/Seoul
GMR,NTGJ,Totegegie Airport,,Iles-Tuamotu-Gambier,PF,-23.079901,-134.889999,7,Pacific/Gambier
GMZ,GCGM,La Gomera Airport,Alajero,Canary-Islands,ES,28.029600,-17.214600,716,Atlantic/Canary
GNB,LFLS,Grenoble-Isere Airport,Grenoble/Saint-Geoirs,Auvergne-Rhone-Alpes,FR,45.362900,5.329370,1302,Europe/Paris
GND,TGPY,Point Salines International Airport,Saint George's,Saint-George,GD,12.004200,-61.786201,41,America/Grenada
GNJ,UBBG,Ganja Airport,Ganja,Goygol-Rayon,AZ,40.737701,46.317600,1083,Asia/Baku
GNM,SNGI,Guanambi Airport,Guanambi,Bahia,BR,-14.208200,-42.746101,1815,America/Bahia
GNS,WIMB,Binaka Airport,Gunung Sitoli-Nias Island,North-Sumatra,ID,1.166380,97.704697,20,Asia/Jakarta
GNV,KGNV,Gainesville Regional Airport,Gainesville,Florida,US,29.690100,-82.271797,152,America/New_York
GNY,LTCS,Sanliurfa GAP Airport,Sanliurfa,Sanliurfa,TR,37.445663,38.895592,2708,Europe/Istanbul
GOA,LIMJ,Genova / Sestri Cristoforo Colombo Airport,Genova,Liguria,IT,44.413300,8.837500,13,Europe/Rome
GOB,HAGB,Robe Airport,Goba,Oromiya,ET,7.017000,40.000000,7892,Africa/Addis_Ababa
GOH,BGGH,Godthaab / Nuuk Airport,Nuuk,,GL,64.190903,-51.678101,283,America/Nuuk
GOI,VOGO,Dabolim Airport,Dabolim,Dabolim,IN,15.380833,73.827000,186,Asia/Kolkata
GOJ,UWGG,Nizhny Novgorod International Airport,Nizhny Novgorod,Novgorod,RU,56.230099,43.784000,256,Europe/Moscow
GOM,FZNA,Goma International Airport,Goma,,CD,-1.670810,29.238501,5089,Africa/Kigali
GOP,VEGK,Gorakhpur Airport,Gorakhpur,Uttar-Pradesh,IN,26.739700,83.449699,259,Asia/Kolkata
GOQ,ZLGM,Golmud Airport,Golmud,Qinghai,CN,36.400600,94.786102,0,Asia/Shanghai
GOT,ESGG,Gothenburg-Landvetter Airport,Gothenburg,Vaestra-Gotaland,SE,57.662800,12.279800,506,Europe/Stockholm
GOU,FKKR,Garoua International Airport,Garoua,North,CM,9.335890,13.370100,794,Africa/Douala
GOV,YPGV,Gove Airport,Nhulunbuy,Northern-Territory,AU,-12.269400,136.817993,192,Australia/Darwin
GOY,VCCG,Amparai Airport,Amparai,Eastern-Province,LK,7.337080,81.625900,150,Asia/Colombo
GPA,LGRX,Araxos Airport,Patras,West-Greece,GR,38.151100,21.425600,46,Europe/Athens
GPB,SBGU,Tancredo Thomas de Faria Airport,Guarapuava,Parana,BR,-25.387501,-51.520199,3494,America/Sao_Paulo
GPI,SKGP,Juan Casiano Airport,Guapi,Cauca,CO,2.570130,-77.898600,164,America/Bogota
GPS,SEGS,Seymour Airport,Baltra,Galapagos,EC,-0.453758,-90.265900,207,Pacific/Galapagos
GPT,KGPT,Gulfport Biloxi International Airport,Gulfport,Mississippi,US,30.407301,-89.070099,28,America/Chicago
GRB,KGRB,Austin Straubel International Airport,Green Bay,Wisconsin,US,44.485100,-88.129601,695,America/Chicago
GRI,KGRI,Central Nebraska Regional Airport,Grand Island,Nebraska,US,40.967499,-98.309601,1847,America/Chicago
GRJ,FAGG,George Airport,George,Western-Cape,ZA,-34.005600,22.378901,648,Africa/Johannesburg
GRK,KGRK,Robert Gray  Army Air Field Airport,Fort Hood/Killeen,Texas,US,31.067200,-97.828903,1015,America/Chicago
GRO,LEGE,Girona Airport,Girona,Catalonia,ES,41.901001,2.760550,468,Europe/Madrid
GRQ,EHGG,Eelde Airport,Groningen,Drenthe,NL,53.119701,6.579440,17,Europe/Amsterdam
GRR,KGRR,Gerald R. Ford International Airport,Grand Rapids,Michigan,US,42.880798,-85.522797,794,America/Detroit
GRU,SBGR,Guarulhos - Governador Andre Franco Montoro International Airport,Sao Paulo,Sao-Paulo,BR,-23.435556,-46.473057,2459,America/Sao_Paulo
GRV,URMG,Grozny North Airport,Grozny,Chechnya,RU,43.388302,45.698601,0,Europe/Moscow
GRW,LPGR,Graciosa Airport,Santa Cruz da Graciosa,Azores,PT,39.092201,-28.029800,86,Atlantic/Azores
GRX,LEGR,Federico Garcia Lorca Airport,Granada,Andalusia,ES,37.188702,-3.777360,1860,Europe/Madrid
GRZ,LOWG,Graz Airport,Graz,Styria,AT,46.991100,15.439600,1115,Europe/Vienna
GSM,OIKQ,Dayrestan Airport,,Hormozgan,IR,26.754601,55.902401,45,Asia/Tehran
GSO,KGSO,Piedmont Triad International Airport,Greensboro,North-Carolina,US,36.097801,-79.937302,925,America/New_York
GSP,KGSP,Greenville Spartanburg International Airport,Greenville,South-Carolina,US,34.895699,-82.218903,964,America/New_York
GST,PAGS,Gustavus Airport,Gustavus,Alaska,US,58.425301,-135.707001,35,America/Juneau
GSV,UWSG,Saratov Gagarin Airport,Saratov,Saratov,RU,51.712778,46.171111,103,Europe/Saratov
GTE,YGTE,Groote Eylandt Airport,Groote Eylandt,Northern-Territory,AU,-13.975000,136.460007,53,Australia/Darwin
GTF,KGTF,Great Falls International Airport,Great Falls,Montana,US,47.481998,-111.371002,3680,America/Denver
GTO,WAMG,Jalaluddin Airport,Gorontalo-Celebes Island,Gorontalo,ID,0.637119,122.849998,105,Asia/Makassar
GTP,K3S8,Grants Pass Airport,Grants Pass,Oregon,US,42.510101,-123.388000,1126,America/Los_Angeles
GTR,KGTR,Golden Triangle Regional Airport,Columbus/W Point/Starkville,Mississippi,US,33.450298,-88.591400,264,America/Chicago
GTS,YTGT,The Granites Airport,,Northern-Territory,AU,-20.548300,130.347000,0,Australia/Darwin
